lat,lng,city,city_ascii,pop,country,iso2,iso3,province
34.98300013,63.13329964,Qal eh-ye Now,Qal eh-ye,2997,Afghanistan,AF,AFG,Badghis
34.5167011,65.25000063,Chaghcharan,Chaghcharan,15000,Afghanistan,AF,AFG,Ghor
31.58299802,64.35999955,Lashkar Gah,Lashkar Gah,201546,Afghanistan,AF,AFG,Hilmand
31.11200108,61.88699752,Zaranj,Zaranj,49851,Afghanistan,AF,AFG,Nimroz
32.63329815,65.86669865,Tarin Kowt,Tarin Kowt,10000,Afghanistan,AF,AFG,Uruzgan
32.85000016,68.41670453,Zareh Sharan,Zareh Sharan,13737,Afghanistan,AF,AFG,Paktika
34.86600004,71.15000459,Asadabad,Asadabad,48400,Afghanistan,AF,AFG,Kunar
36.72999904,69.54000364,Taloqan,Taloqan,64256,Afghanistan,AF,AFG,Takhar
35.01669608,69.33330065,Mahmud-E Eraqi,Mahmud-E Eraqi,7407,Afghanistan,AF,AFG,Kapisa
34.65000001,70.16670052,Mehtar Lam,Mehtar Lam,17345,Afghanistan,AF,AFG,Laghman
33.9667021,68.96670354,Baraki Barak,Baraki Barak,22305,Afghanistan,AF,AFG,Logar
36.26100015,68.04000051,Aybak,Aybak,24000,Afghanistan,AF,AFG,Samangan
34.45000209,68.79999663,Mayda Shahr,Mayda Shahr,35008,Afghanistan,AF,AFG,Wardak
34.48676963,62.59177608,Karokh,Karokh,14388.5,Afghanistan,AF,AFG,Hirat
36.65798077,65.73830237,Sheberghan,Sheberghan,74441,Afghanistan,AF,AFG,Jawzjan
35.95107302,68.70111894,Pol-e Khomri,Pol-e Khomri,41029,Afghanistan,AF,AFG,Baghlan
36.75011985,66.89973018,Balkh,Balkh,147426,Afghanistan,AF,AFG,Balkh
35.93022158,64.77009273,Meymaneh,Meymaneh,199795,Afghanistan,AF,AFG,Faryab
36.93165916,65.10149369,Andkhvoy,Andkhvoy,50469,Afghanistan,AF,AFG,Faryab
32.11226341,66.8867594,Qalat,Qalat,12191,Afghanistan,AF,AFG,Zabul
33.56331179,68.41782873,Ghazni,Ghazni,129892.5,Afghanistan,AF,AFG,Ghazni
37.12976076,70.57924719,Feyzabad,Feyzabad,52490,Afghanistan,AF,AFG,Badakhshan
36.72795066,68.87252966,Kondoz,Kondoz,210855.5,Afghanistan,AF,AFG,Kunduz
34.44152692,70.43610347,Jalalabad,Jalalabad,401697,Afghanistan,AF,AFG,Nangarhar
35.01826174,69.16791215,Charikar,Charikar,53676,Afghanistan,AF,AFG,Parwan
33.60005373,69.21462764,Gardiz,Gardiz,82680.5,Afghanistan,AF,AFG,Paktya
34.82106447,67.52103593,Bamian,Bamian,61863,Afghanistan,AF,AFG,Bamyan
36.13933026,68.69925858,Baghlan,Baghlan,163598.5,Afghanistan,AF,AFG,Baghlan
32.39172955,62.09681921,Farah,Farah,58604,Afghanistan,AF,AFG,Farah
34.33000917,62.16999304,Herat,Herat,439232.5,Afghanistan,AF,AFG,Hirat
36.69999371,67.10002803,Mazar-e Sharif,Mazar-e Sharif,365432.5,Afghanistan,AF,AFG,Balkh
31.61002016,65.69494584,Kandahar,Kandahar,613871,Afghanistan,AF,AFG,Kandahar
34.51669029,69.18326005,Kabul,Kabul,3160266,Afghanistan,AF,AFG,Kabul
60.09699618,19.94900447,Mariehamn,Mariehamn,10682,Aland,AX,ALD,Finström
41.51899817,19.79700359,Kruje,Kruje,21286,Albania,AL,ALB,Durrës
40.73000402,19.5730026,Fier,Fier,69747.5,Albania,AL,ALB,Fier
40.94000113,19.71600348,Lushnje,Lushnje,41469,Albania,AL,ALB,Fier
42.03330302,19.88330448,Puke,Puke,6495,Albania,AL,ALB,Shkodër
42.33330007,20.08330257,Bajram Curri,Bajram Curri,7967,Albania,AL,ALB,Kukës
42.08300107,20.43399653,Kukes,Kukes,17832,Albania,AL,ALB,Kukës
39.87700212,19.99999859,Sarande,Sarande,15147,Albania,AL,ALB,Vlorë
40.33330213,20.68329651,Erseke,Erseke,7890,Albania,AL,ALB,Korçë
40.89999612,20.66400062,Pogradec,Pogradec,35000,Albania,AL,ALB,Korçë
40.61667601,20.76666353,Korce,Korce,58259,Albania,AL,ALB,Korçë
40.70999705,19.97199958,Berat,Berat,46866,Albania,AL,ALB,Berat
40.51670403,20.23329663,Corovode,Corovode,14046,Albania,AL,ALB,Berat
40.86669601,20.19999652,Gramsh,Gramsh,11556,Albania,AL,ALB,Elbasan
41.20000211,20.3667036,Librazhd,Librazhd,12691,Albania,AL,ALB,Elbasan
40.2832981,20.03329854,Tepelene,Tepelene,11955,Albania,AL,ALB,Gjirokastër
40.23399605,20.35199756,Permet,Permet,10686,Albania,AL,ALB,Gjirokastër
40.07899809,20.14900256,Gjirokaster,Gjirokaster,23437,Albania,AL,ALB,Gjirokastër
41.6833021,20.43330349,Peshkopi,Peshkopi,14848,Albania,AL,ALB,Dibër
41.62599908,20.01600053,Burrel,Burrel,15405,Albania,AL,ALB,Dibër
41.78799914,19.65400254,Lezhe,Lezhe,18695,Albania,AL,ALB,Lezhë
41.78330106,19.81670459,Rreshen,Rreshen,10064,Albania,AL,ALB,Lezhë
40.47736005,19.49823075,Vlore,Vlore,89508.5,Albania,AL,ALB,Vlorë
41.12150677,20.08382808,Elbasan,Elbasan,132956.5,Albania,AL,ALB,Elbasan
41.3177997,19.44820797,Durres,Durres,132233,Albania,AL,ALB,Durrës
42.06845156,19.51884965,Shkoder,Shkoder,122006,Albania,AL,ALB,Shkodër
41.32754071,19.81888301,Tirana,Tirana,658318,Albania,AL,ALB,Durrës
36.82199703,5.76600356,Jijel,Jijel,148000,Algeria,DZ,DZA,Jijel
36.80000111,4.033332556,Tizi-Ouzou,Tizi-Ouzou,144000,Algeria,DZ,DZA,Tizi Ouzou
36.05900401,4.629996466,Bordj Bou Arreridj,Bordj Bou Arreridj,134500,Algeria,DZ,DZA,Bordj Bou Arréridj
35.7000031,4.545000584,M'sila,M'sila,125000,Algeria,DZ,DZA,M'Sila
36.46600213,7.427997486,Guelma,Guelma,123590,Algeria,DZ,DZA,Guelma
35.84999715,7.149996522,Oum el Bouaghi,Oum el Bouaghi,100821,Algeria,DZ,DZA,Oum el Bouaghi
29.23652163,0.269998737,Timimoun,Timimoun,26568,Algeria,DZ,DZA,Adrar
35.19034426,-0.639971559,Sidi bel Abbes,Sidi bel Abbes,200186.5,Algeria,DZ,DZA,Sidi Bel Abbès
34.89041424,-1.32000757,Tlimcen,Tlimcen,181059,Algeria,DZ,DZA,Tlemcen
32.04926984,-1.251381268,Beni Ounif,Beni Ounif,5628,Algeria,DZ,DZA,Béchar
31.01708478,-2.733306317,Abadla,Abadla,14364,Algeria,DZ,DZA,Béchar
32.76041506,-0.579949383,Sefra,Sefra,51118,Algeria,DZ,DZA,Naâma
36.88042198,6.899981647,Skikda,Skikda,193941.5,Algeria,DZ,DZA,Skikda
24.5529057,9.482252969,Djanet,Djanet,666,Algeria,DZ,DZA,Illizi
28.0503408,9.550000772,I-n-Amenas,I-n-Amenas,216,Algeria,DZ,DZA,Illizi
23.69394004,5.164738727,In Amguel,In Amguel,3030,Algeria,DZ,DZA,Tamanghasset
33.6903583,1.009953571,El Bayadh,El Bayadh,67413,Algeria,DZ,DZA,El Bayadh
33.37040367,6.859984089,El Oued,El Oued,177497,Algeria,DZ,DZA,Biskra
31.70234011,6.054451862,Hassi Messaoud,Hassi Messaoud,18124,Algeria,DZ,DZA,Ouargla
36.17041363,1.319960489,Chlef,Chlef,449167,Algeria,DZ,DZA,Chlef
35.40040895,0.14003251,Mascara,Mascara,108230,Algeria,DZ,DZA,Mascara
35.940376,0.089983885,Mostaganem,Mostaganem,159177,Algeria,DZ,DZA,Mostaganem
34.84039146,0.14003251,Saida,Saida,134855,Algeria,DZ,DZA,Saïda
35.38043601,1.319960489,Tiarat,Tiarat,184195,Algeria,DZ,DZA,Tiaret
36.76037762,5.070015827,Bejaia,Bejaia,274520,Algeria,DZ,DZA,Béjaïa
36.4203467,2.829997517,Blida,Blida,388174,Algeria,DZ,DZA,Blida
36.38047833,3.900009724,Bouira,Bouira,110144,Algeria,DZ,DZA,Bouira
36.27040753,2.770001179,Medea,Medea,145863.5,Algeria,DZ,DZA,Médéa
36.29038047,7.949995075,Souk Ahras,Souk Ahras,134947,Algeria,DZ,DZA,Souk Ahras
35.41043418,8.120010537,Tebessa,Tebessa,171742,Algeria,DZ,DZA,Tébessa
27.86999005,-0.289967083,Adrar,Adrar,56910,Algeria,DZ,DZA,Adrar
26.69998395,0.166645873,Reggane,Reggane,22351.5,Algeria,DZ,DZA,Adrar
31.61110537,-2.230003704,Bechar,Bechar,142415.5,Algeria,DZ,DZA,Béchar
27.67418805,-8.147782025,Tindouf,Tindouf,18270,Algeria,DZ,DZA,Tindouf
26.48335634,8.466604369,Illizi,Illizi,7293,Algeria,DZ,DZA,Illizi
25.2799931,3.749993041,Arak,Arak,423251,Algeria,DZ,DZA,Tamanghasset
27.21664492,2.466608845,I-n-Salah,I-n-Salah,28632,Algeria,DZ,DZA,Tamanghasset
30.56662132,2.883327595,El Golea,El Golea,32049,Algeria,DZ,DZA,Ghardaïa
33.80998924,2.880020303,Laghouat,Laghouat,108279,Algeria,DZ,DZA,Laghouat
33.0999809,6.05998124,Touggourt,Touggourt,91499,Algeria,DZ,DZA,Ouargla
31.96997235,5.340025186,Ouargla,Ouargla,176271,Algeria,DZ,DZA,Ouargla
34.85997683,5.73002722,Biskra,Biskra,202103,Algeria,DZ,DZA,Biskra
34.67998781,3.250023558,Djelfa,Djelfa,170901,Algeria,DZ,DZA,Djelfa
36.18002545,5.399969847,Setif,Setif,274744,Algeria,DZ,DZA,Sétif
35.56995933,6.170000365,Batna,Batna,269467,Algeria,DZ,DZA,Batna
36.92000612,7.759980834,Annaba,Annaba,355047,Algeria,DZ,DZA,Annaba
36.35998863,6.599948281,Constantine,Constantine,527638,Algeria,DZ,DZA,Constantine
35.71000246,-0.61997278,Oran,Oran,721992,Algeria,DZ,DZA,Oran
22.78500327,5.522804727,Tamanrasset,Tamanrasset,71808,Algeria,DZ,DZA,Tamanghasset
32.48999229,3.669997923,Ghardaia,Ghardaia,125480,Algeria,DZ,DZA,Ghardaïa
36.7630648,3.05055253,Algiers,Algiers,2665831.5,Algeria,DZ,DZA,Alger
-14.2766105,-170.7066451,Pago Pago,Pago Pago,12038,American Samoa,AS,ASM,
42.50000144,1.516485961,Andorra,Andorra,38127,Andorra,AD,AND,
-18.01953449,21.42999914,Mucusso,Mucusso,100,Angola,AO,AGO,Cuando Cubango
-8.419603659,20.74001542,Lucapa,Lucapa,25578,Angola,AO,AGO,Lunda Norte
-9.4195943,18.43002722,Capenda-Camulemba,Capenda-Camulemba,79842.5,Angola,AO,AGO,Lunda Norte
-9.659579652,20.39001094,Saurimo,Saurimo,40907,Angola,AO,AGO,Lunda Sul
-10.59962563,21.31998002,Muconda,Muconda,2324,Angola,AO,AGO,Lunda Sul
-10.14962726,19.2600024,Cacolo,Cacolo,984,Angola,AO,AGO,Lunda Sul
-8.579542217,13.65998246,Caxito,Caxito,15665.5,Angola,AO,AGO,Bengo
-8.189591859,15.37000728,Camabatela,Camabatela,12731,Angola,AO,AGO,Cuanza Norte
-9.299549948,14.90998368,Ndalatando,Ndalatando,8144,Angola,AO,AGO,Cuanza Norte
-10.72959186,14.97995357,Quibala,Quibala,5248.5,Angola,AO,AGO,Cuanza Sul
-9.999610577,14.90001013,Calulo,Calulo,795,Angola,AO,AGO,Cuanza Sul
-11.35952757,15.1199967,Waku Kungo,Waku Kungo,11519.5,Angola,AO,AGO,Cuanza Sul
-7.349591452,14.84998734,Songo,Songo,10579,Angola,AO,AGO,Uíge
-6.269605694,14.23999874,Mbanza-Congo,Mbanza-Congo,42201,Angola,AO,AGO,Zaire
-7.229598776,12.86003129,Nzeto,Nzeto,19705.5,Angola,AO,AGO,Zaire
-6.129614239,12.36998368,Soyo,Soyo,65329,Angola,AO,AGO,Zaire
-5.55962319,12.18999467,Cabinda,Cabinda,78905.5,Angola,AO,AGO,Cabinda
-11.31958169,16.19998246,Calucinga,Calucinga,531,Angola,AO,AGO,Bié
-12.01959064,17.46998246,Camacupa,Camacupa,19489,Angola,AO,AGO,Bié
-13.03958006,14.23999874,Cubal,Cubal,4837,Angola,AO,AGO,Benguela
-15.7895414,20.36003861,Mavinga,Mavinga,30000,Angola,AO,AGO,Cuando Cubango
-15.15960569,19.16998205,Cuito Caunavale,Cuito Caunavale,149,Angola,AO,AGO,Cuando Cubango
-17.36954832,22.99998083,Luiana,Luiana,150,Angola,AO,AGO,Cuando Cubango
-17.06961831,15.73003699,Ondjiva,Ondjiva,8748,Angola,AO,AGO,Cunene
-17.31962889,13.92001827,Chitado,Chitado,468.5,Angola,AO,AGO,Cunene
-15.74959552,14.0800085,Chibemba,Chibemba,1502,Angola,AO,AGO,Huíla
-15.1896297,13.69000647,Chibia,Chibia,1411,Angola,AO,AGO,Huíla
-14.82954832,14.55000565,Quipungo,Quipungo,186,Angola,AO,AGO,Huíla
-10.7095414,22.23000199,Luau,Luau,9964,Angola,AO,AGO,Moxico
-13.69959145,19.86001745,Cangamba,Cangamba,1307,Angola,AO,AGO,Moxico
-14.09961871,21.44002437,Lumbala Nguimbo,Lumbala Nguimbo,25,Angola,AO,AGO,Moxico
-11.88957273,22.90003861,Cazombo,Cazombo,298,Angola,AO,AGO,Moxico
-7.380028871,20.82998409,Dundo,Dundo,11985,Angola,AO,AGO,Lunda Norte
-7.85498696,13.12502803,Ambriz,Ambriz,17000,Angola,AO,AGO,Bengo
-9.690017071,14.43001298,Dondo,Dondo,2353,Angola,AO,AGO,Cuanza Norte
-11.21002765,13.8499967,Sumbe,Sumbe,29638.5,Angola,AO,AGO,Cuanza Sul
-7.620014222,15.04997514,Uige,Uige,56787.5,Angola,AO,AGO,Uíge
-12.38003375,16.93998897,Kuito,Kuito,113955,Angola,AO,AGO,Bié
-12.37000853,13.54123002,Lobito,Lobito,170733,Angola,AO,AGO,Benguela
-16.74002602,14.96998002,Xangongo,Xangongo,447,Angola,AO,AGO,Cunene
-11.79004393,19.90001501,Luena,Luena,17276.5,Angola,AO,AGO,Moxico
-15.80003172,11.85998897,Tômbua,Tombua,40000,Angola,AO,AGO,Namibe
-9.540000388,16.34002559,Malanje,Malanje,106451,Angola,AO,AGO,Malanje
-12.57826455,13.40723303,Benguela,Benguela,142017,Angola,AO,AGO,Benguela
-14.91000853,13.49001868,Lubango,Lubango,114086.5,Angola,AO,AGO,Huíla
-15.19004311,12.16002234,Namibe,Namibe,128130.5,Angola,AO,AGO,Namibe
-14.66661253,17.69999426,Menongue,Menongue,13030,Angola,AO,AGO,Cuando Cubango
-12.74998533,15.76000932,Huambo,Huambo,986000,Angola,AO,AGO,Huambo
-8.838286114,13.23442704,Luanda,Luanda,3562086,Angola,AO,AGO,Luanda
-62.17388669,-58.86386407,Artigas Base,Artigas Base,34.5,Antarctica,AQ,ATA,
-62.49950682,-59.68331852,Capitan Arturo Prat Station,Capitan Arturo Prat Station,41,Antarctica,AQ,ATA,
-64.23288939,-56.6500153,Marambio Station,Vicecomodoro Marambio Station,102.5,Antarctica,AQ,ATA,
-74.61919259,164.2190271,Zucchelli Station,Terra Nova Bay,60,Antarctica,AQ,ATA,
-67.5647756,-68.12354055,Rothera Station,Rothera Station,76,Antarctica,AQ,ATA,
-64.76241335,-64.0468756,Palmer Station,Palmer Station,30.5,Antarctica,AQ,ATA,
-62.18274357,-58.90765233,Base Presidente Montalva,Teniente Rodolfo Marsh Station,115,Antarctica,AQ,ATA,
-62.22414386,-58.65047599,Carlini Station,Teniente Jubany Station,40,Antarctica,AQ,ATA,
-62.2248534,-58.77159876,King Sejong Station,King Sejong Station,53.5,Antarctica,AQ,ATA,
-62.21631997,-58.9666956,Great Wall Station,Great Wall Station,26,Antarctica,AQ,ATA,
-62.19496251,-58.95266582,Escudero Base,Escudero Station,20,Antarctica,AQ,ATA,
-61.99958901,-57.99998458,Elephant Island,"Elephant Island, South Shetland Islands",3,Antarctica,AQ,ATA,
-77.84693819,166.7491023,Scott Base,Scott Base,49.5,Antarctica,AQ,ATA,
-77.73228239,166.8694157,McMurdo Station,McMurdo Station,600,Antarctica,AQ,ATA,
-69.43406299,76.33929808,Zhongshan Station,Zhongshan Station,42.5,Antarctica,AQ,ATA,
-78.46628416,106.8000337,Vostok,Vostok,19,Antarctica,AQ,ATA,
-68.83286701,90.49999508,Peter I Island,Peter I Island,0.5,Antarctica,AQ,ATA,
-66.57552952,93.00628846,Mirny Station,Mirny Station,114.5,Antarctica,AQ,ATA,
-67.61452032,62.87500073,Mawson Station,Mawson Station,40,Antarctica,AQ,ATA,
-68.77767439,78.14073509,Davis Station,Davis Station,45,Antarctica,AQ,ATA,
-74.66630939,124.1670357,Concordia Research Station,Concordia Research Station,15,Antarctica,AQ,ATA,
-66.28608614,110.536214,Casey Station,Casey Station,125,Antarctica,AQ,ATA,
-89.98289386,139.2669926,Amundsen–Scott South Pole Station,Amundsen–Scott South Pole Station,125,Antarctica,AQ,ATA,
-73.0496122,-13.41671106,Wasa Station,Wasa Station,5,Antarctica,AQ,ATA,
-72.01629026,2.533323119,Troll Station,Troll Station,25.5,Antarctica,AQ,ATA,
-74.58290363,-11.21669031,Svea Station,Svea Station,5,Antarctica,AQ,ATA,
-71.30123475,-11.8502129,Novolazarevskaya Station,Novolazarevskaya Station,35,Antarctica,AQ,ATA,
-70.89039668,-7.838438004,Neumayer Station III,Neumayer,40,Antarctica,AQ,ATA,
-70.7821796,11.7304584,Maitri Station,Maitri Station,33,Antarctica,AQ,ATA,
-76.09226319,-26.4741567,Halley Station,Halley Station,43,Antarctica,AQ,ATA,
-77.86632078,-34.61668319,Belgrano Station,General Belgrano Station,57,Antarctica,AQ,ATA,
-81.17908472,-40.50153152,Camp Sobral,Doctor Sobral,20,Antarctica,AQ,ATA,
-75.04959349,-13.41671106,Aboa Station,Aboa Station,15,Antarctica,AQ,ATA,
-68.1163216,-67.0999976,San Martín Station,San Martín Station,19,Antarctica,AQ,ATA,
-63.32841823,-57.88959352,Gen. O'Higgins Station,General Bernado O'Higgins Station,30,Antarctica,AQ,ATA,
-63.37532865,-57.02590151,Esperanza Station,Esperanza Station,152.5,Antarctica,AQ,ATA,
-60.7328963,-44.73330082,Orcadas Station,Orcadas Station,29.5,Antarctica,AQ,ATA,
-60.63130815,-45.60070332,Signy Research Station,Signy Island,4,Antarctica,AQ,ATA,
-66.77505091,139.9636836,Dumont d'Urville Station,Dumont d'Urville Station,75,Antarctica,AQ,ATA,
-69.03039249,39.7460831,Showa Station,Showa Station,50,Antarctica,AQ,ATA,
17.11803652,-61.85003382,Saint John's,Saint John's,29862.5,Antigua and Barbuda,AG,ATG,
-51.65003986,-72.30001612,28 de Noviembre,28 de Noviembre,5300,Argentina,AR,ARG,Santa Cruz
-48.76659829,-70.25001205,Gobernador Gregores,Gobernador Gregores,2519,Argentina,AR,ARG,Santa Cruz
-49.97454865,-68.90347273,Comondante Luis Piedrabuena,Comondante Luis Piedrabuena,410,Argentina,AR,ARG,Santa Cruz
-45.68337563,-70.26657434,Paso Rio Mayo,Paso Rio Mayo,1825,Argentina,AR,ARG,Chubut
-45.03328611,-70.83328394,Alto Rio Sanguer,Alto Rio Sanguer,1548,Argentina,AR,ARG,Chubut
-42.05000568,-71.16662276,El Maiten,El Maiten,4269,Argentina,AR,ARG,Chubut
-42.77001341,-65.04001998,Puerto Madryn,Puerto Madryn,61159,Argentina,AR,ARG,Chubut
-43.25003579,-65.3299506,Trelew,Trelew,93128.5,Argentina,AR,ARG,Chubut
-32.82503904,-68.80167668,Las Heras,Las Heras,66663,Argentina,AR,ARG,Mendoza
-33.06998533,-68.49001612,San Martin,San Martin,99974,Argentina,AR,ARG,Mendoza
-32.59311522,-69.34598454,Uspallata,Uspallata,2390,Argentina,AR,ARG,Mendoza
-38.94001463,-69.24002202,Cutral Co,Cutral Co,47597,Argentina,AR,ARG,Neuquén
-38.87996662,-62.0799681,Punta Alta,Punta Alta,55969.5,Argentina,AR,ARG,Ciudad de Buenos Aires
-33.33002114,-60.24000289,San Nicolas,San Nicolas,117123.5,Argentina,AR,ARG,Ciudad de Buenos Aires
-34.15999632,-58.95997766,Campana,Campana,77149.5,Argentina,AR,ARG,Ciudad de Buenos Aires
-34.65004393,-60.48998763,Chacabuco,Chacabuco,26645,Argentina,AR,ARG,Ciudad de Buenos Aires
-34.66001748,-59.44002588,Mercedes,Mercedes,48408.5,Argentina,AR,ARG,Ciudad de Buenos Aires
-34.88000405,-61.53994938,Lincoln,Lincoln,19924,Argentina,AR,ARG,Ciudad de Buenos Aires
-34.89995115,-60.03998926,Chivilcoy,Chivilcoy,43719,Argentina,AR,ARG,Ciudad de Buenos Aires
-35.42999632,-60.17998071,Veinticinco de Mayo,Veinticinco de Mayo,18749,Argentina,AR,ARG,Ciudad de Buenos Aires
-35.44596434,-60.88998906,Nueve de Julio,Nueve de Julio,26716,Argentina,AR,ARG,Ciudad de Buenos Aires
-36.33004474,-57.68997766,Dolores,Dolores,21586.5,Argentina,AR,ARG,Ciudad de Buenos Aires
-39.48334064,-62.68331629,Pedro Luro,Pedro Luro,7100,Argentina,AR,ARG,Ciudad de Buenos Aires
-38.3699719,-60.26994938,Tres Arroyos,Tres Arroyos,34773.5,Argentina,AR,ARG,Ciudad de Buenos Aires
-37.46661619,-61.9166189,Coronel Suarez,Coronel Suarez,20713,Argentina,AR,ARG,Ciudad de Buenos Aires
-37.83331216,-58.24999516,Balcarce,Balcarce,18967,Argentina,AR,ARG,Ciudad de Buenos Aires
-37.80003253,-67.68329533,25 de Mayo,25 de Mayo,17430,Argentina,AR,ARG,Río Negro
-39.01995807,-67.60996647,General Roca,General Roca,38578,Argentina,AR,ARG,Río Negro
-41.03332355,-70.26657434,Comallo,Comallo,741,Argentina,AR,ARG,Río Negro
-41.30002562,-69.58330855,Ingeniero Jacobacci,Ingeniero Jacobacci,5719,Argentina,AR,ARG,Río Negro
-40.10004718,-64.43328699,General Conesa,General Conesa,2958,Argentina,AR,ARG,Río Negro
-39.26660968,-65.68331405,Choele Choel,Choele Choel,9895.5,Argentina,AR,ARG,Río Negro
-31.43003375,-62.08996749,San Francisco,San Francisco,43231,Argentina,AR,ARG,Córdoba
-31.65999388,-64.4299797,Alta Gracia,Alta Gracia,30593,Argentina,AR,ARG,Córdoba
-32.41002562,-63.26002527,Villa Maria,Villa Maria,76701,Argentina,AR,ARG,Córdoba
-32.60003986,-62.67995732,Bell Ville,Bell Ville,29605,Argentina,AR,ARG,Córdoba
-32.18332111,-64.48328394,Villa Rumipal,Villa Rumipal,1269,Argentina,AR,ARG,Córdoba
-31.42000853,-64.50000126,Villa Carlos Paz,Villa Carlos Paz,60256,Argentina,AR,ARG,Córdoba
-28.86662433,-66.23330632,Chumbicha,Chumbicha,2572,Argentina,AR,ARG,Catamarca
-28.06662148,-67.56658411,Tinogasta,Tinogasta,587,Argentina,AR,ARG,Catamarca
-22.7166638,-65.6999797,Abra Pampa,Abra Pampa,4480,Argentina,AR,ARG,Jujuy
-23.19999347,-65.34994938,Humahuaca,Humahuaca,11369,Argentina,AR,ARG,Jujuy
-23.41667275,-66.4833169,Susques,Susques,1093,Argentina,AR,ARG,Jujuy
-31.34998696,-66.5999506,Chepes,Chepes,6020,Argentina,AR,ARG,La Rioja
-22.03003904,-63.69999841,Yacuiba,Yacuiba,64811,Argentina,AR,ARG,Salta
-22.55000731,-63.81001754,Tartagal,Tartagal,59996.5,Argentina,AR,ARG,Salta
-25.08334105,-64.18335392,Joaquin V. Gonzalez,Joaquin V. Gonzalez,13376,Argentina,AR,ARG,Salta
-24.6666223,-65.04996769,General Guemes,General Guemes,19828,Argentina,AR,ARG,Salta
-26.21665688,-65.28331262,Trancas,Trancas,1599,Argentina,AR,ARG,Tucumán
-26.7900069,-60.45001591,Presidencia Roque Saenz Pena,Presidencia Roque Saenz Pena,75958,Argentina,AR,ARG,Chaco
-26.51658689,-61.16658716,Pampa del Infierno,Pampa del Infierno,2921,Argentina,AR,ARG,Chaco
-27.58329181,-60.7166663,Villa Angela,Villa Angela,30051,Argentina,AR,ARG,Chaco
-23.90000242,-61.84998214,Ingeniero Guillermo N. Juarez,Ingeniero Guillermo N. Juarez,6453,Argentina,AR,ARG,Formosa
-25.33329995,-59.68331852,Comandante Fontana,Comandante Fontana,4277,Argentina,AR,ARG,Formosa
-22.47998574,-62.29998051,Doctor Pedro P. Pena,Doctor Pedro P. Pena,6143,Argentina,AR,ARG,Formosa
-28.12000324,-58.76998926,San Lorenzo,San Lorenzo,25833.5,Argentina,AR,ARG,Corrientes
-27.48996417,-58.80998682,Corrientes,Corrientes,339945,Argentina,AR,ARG,Corrientes
-32.47999551,-58.23999577,Concepcion del Uruguay,Concepcion del Uruguay,48275,Argentina,AR,ARG,Entre Ríos
-32.61001341,-60.17998071,Victoria,Victoria,20032.5,Argentina,AR,ARG,Entre Ríos
-33.15003213,-59.34000615,Gualeguay,Gualeguay,25913,Argentina,AR,ARG,Entre Ríos
-31.73332273,-60.53334416,Parana,Parana,226852,Argentina,AR,ARG,Entre Ríos
-33.23002724,-60.35002202,Villa Constitucion,Villa Constitucion,30282.5,Argentina,AR,ARG,Santa Fe
-31.25004474,-61.49997766,Rafaela,Rafaela,69649,Argentina,AR,ARG,Santa Fe
-26.20001707,-54.59998539,Eldorado,Eldorado,17365,Argentina,AR,ARG,Misiones
-30.21558592,-69.1399506,Rodeo,Rodeo,701,Argentina,AR,ARG,San Juan
-43.41627887,-67.24998845,Las Plumas,Las Plumas,605,Argentina,AR,ARG,Chubut
-42.28296303,-69.23330408,Gastre,Gastre,557,Argentina,AR,ARG,Chubut
-42.39959674,-66.95000676,Telsen,Telsen,493,Argentina,AR,ARG,Chubut
-35.46611815,-69.58330855,Malargue,Malargue,11847,Argentina,AR,ARG,Mendoza
-33.56618244,-69.01667647,Tunuyan,Tunuyan,22834,Argentina,AR,ARG,Mendoza
-33.46613686,-67.54999597,La Paz,La Paz,4400,Argentina,AR,ARG,Mendoza
-37.38295205,-70.26657434,Chos Malal,Chos Malal,8556,Argentina,AR,ARG,Neuquén
-38.51626788,-70.36659408,Las Lajas,Las Lajas,1218,Argentina,AR,ARG,Neuquén
-34.08956134,-59.04002446,Zarate,Zarate,86192,Argentina,AR,ARG,Ciudad de Buenos Aires
-37.1828609,-62.73331323,Carhue,Carhue,7190,Argentina,AR,ARG,Ciudad de Buenos Aires
-37.69957355,-63.16659428,Darregueira,Darregueira,3412,Argentina,AR,ARG,Ciudad de Buenos Aires
-37.66551878,-59.80002975,Juarez,Juarez,10609,Argentina,AR,ARG,Ciudad de Buenos Aires
-36.71622272,-56.67660283,Mar de Ajo,Mar de Ajo,13610,Argentina,AR,ARG,Ciudad de Buenos Aires
-35.184895,-59.09467228,Lobos,Lobos,18278,Argentina,AR,ARG,Ciudad de Buenos Aires
-35.56621539,-58.01662439,Chascomus,Chascomus,21054,Argentina,AR,ARG,Ciudad de Buenos Aires
-34.58456989,-60.95887374,Junin,Junin,66141.5,Argentina,AR,ARG,Ciudad de Buenos Aires
-34.90961465,-57.95996118,La Plata,La Plata,440388.5,Argentina,AR,ARG,Ciudad de Buenos Aires
-33.89959878,-60.56998275,Pergamino,Pergamino,71448,Argentina,AR,ARG,Ciudad de Buenos Aires
-34.57960895,-59.10999435,Lujan,Lujan,69744.5,Argentina,AR,ARG,Ciudad de Buenos Aires
-36.7796297,-59.86999964,Azul,Azul,43407.5,Argentina,AR,ARG,Ciudad de Buenos Aires
-39.88285114,-62.58332239,Villalonga,Villalonga,2838,Argentina,AR,ARG,Ciudad de Buenos Aires
-36.21625324,-65.45002079,Victorica,Victorica,4458,Argentina,AR,ARG,La Pampa
-35.65959471,-63.77001998,General Pico,General Pico,46483,Argentina,AR,ARG,La Pampa
-40.73287677,-64.93328231,San Antonio Oeste,San Antonio Oeste,8492,Argentina,AR,ARG,Río Negro
-40.58286009,-67.79998071,Sierra Colorado,Sierra Colorado,1522,Argentina,AR,ARG,Río Negro
-33.68958576,-65.4699679,Mercedes,Mercedes,49345,Argentina,AR,ARG,San Luis
-32.1796004,-64.12002446,Rio Tercero,Rio Tercero,38049.5,Argentina,AR,ARG,Córdoba
-27.64959267,-67.03328333,Belen,Belen,11359,Argentina,AR,ARG,Catamarca
-22.43290851,-66.16659204,Rinconada,Rinconada,6209.5,Argentina,AR,ARG,Jujuy
-24.21962116,-64.87000452,San Pedro,San Pedro,55249,Argentina,AR,ARG,Jujuy
-23.81954222,-64.78998356,Libertador General San Martin,Libertador General San Martin,47559,Argentina,AR,ARG,Jujuy
-29.16552081,-67.49999903,Chilecito,Chilecito,20343,Argentina,AR,ARG,La Rioja
-30.34958291,-66.3166604,Chamical,Chamical,8989,Argentina,AR,ARG,La Rioja
-23.59960732,-62.60003972,Los Blancos,Los Blancos,1145,Argentina,AR,ARG,Salta
-26.08291828,-65.96660425,Cafayate,Cafayate,9478,Argentina,AR,ARG,Salta
-24.89963133,-65.48330042,Cerrillos,Cerrillos,11498,Argentina,AR,ARG,Salta
-24.18293089,-66.35001754,San Antonio de los Cobres,San Antonio de los Cobres,4000,Argentina,AR,ARG,Salta
-28.46613198,-62.83330713,Anatuya,Anatuya,14133,Argentina,AR,ARG,Santiago del Estero
-28.64958331,-65.14998743,Frias,Frias,13594,Argentina,AR,ARG,Santiago del Estero
-25.79962807,-62.86658675,Monte Quemado,Monte Quemado,11387,Argentina,AR,ARG,Santiago del Estero
-25.9495414,-60.61664657,Juan Jose Castelli,Juan Jose Castelli,9421,Argentina,AR,ARG,Chaco
-27.21628579,-61.19999597,Charata,Charata,18297,Argentina,AR,ARG,Chaco
-24.69959186,-60.60000676,Las Lomitas,Las Lomitas,7683,Argentina,AR,ARG,Formosa
-29.1795768,-58.0799797,Mercedes,Mercedes,22872.5,Argentina,AR,ARG,Corrientes
-31.38957111,-58.02998275,Concordia,Concordia,132760.5,Argentina,AR,ARG,Entre Ríos
-30.93290648,-61.56661442,Sunchales,Sunchales,12655,Argentina,AR,ARG,Santa Fe
-30.78288979,-60.58328943,San Justo,San Justo,9607,Argentina,AR,ARG,Santa Fe
-29.4661743,-60.21659347,Vera,Vera,9979,Argentina,AR,ARG,Santa Fe
-29.13952757,-59.65001306,Reconquista,Reconquista,86640.5,Argentina,AR,ARG,Santa Fe
-33.74958209,-61.97000065,Venado Tuerto,Venado Tuerto,52079,Argentina,AR,ARG,Santa Fe
-42.90003131,-71.31661361,Esquel,Esquel,20048,Argentina,AR,ARG,Chubut
-38.90001707,-70.06666406,Zapala,Zapala,19152,Argentina,AR,ARG,Neuquén
-36.90003579,-60.3299974,Olavarria,Olavarria,65059,Argentina,AR,ARG,Ciudad de Buenos Aires
-37.32001015,-59.15004358,Tandil,Tandil,84799.5,Argentina,AR,ARG,Ciudad de Buenos Aires
-40.79995278,-63.0000153,Viedma,Viedma,54031,Argentina,AR,ARG,Ciudad de Buenos Aires
-33.29999713,-66.35001754,San Luis,San Luis,308146,Argentina,AR,ARG,San Luis
-33.13003335,-64.34998458,Rio Cuarto,Rio Cuarto,135959.5,Argentina,AR,ARG,Córdoba
-24.1833443,-65.30002995,San Salvador de Jujuy,San Salvador de Jujuy,258739,Argentina,AR,ARG,Jujuy
-23.13999713,-64.32001225,San Ramon de la Nueva Oran,San Ramon de la Nueva Oran,69461.5,Argentina,AR,ARG,Salta
-29.13999266,-59.26998458,Goya,Goya,71274.5,Argentina,AR,ARG,Corrientes
-49.30000242,-67.71665247,Puerto San Julian,Puerto San Julian,2347,Argentina,AR,ARG,Santa Cruz
-46.60001219,-70.93335535,Perito Moreno,Perito Moreno,3766,Argentina,AR,ARG,Santa Cruz
-53.79144552,-67.6989952,Rio Grande,Rio Grande,31095,Argentina,AR,ARG,Tierra del Fuego
-54.79000324,-68.31000126,Ushuaia,Ushuaia,50483.5,Argentina,AR,ARG,Tierra del Fuego
-45.60002155,-69.08331323,Sarmiento,Sarmiento,5185,Argentina,AR,ARG,Chubut
-34.60002114,-68.33333317,San Rafael,San Rafael,79523.5,Argentina,AR,ARG,Mendoza
-38.55998615,-58.74999048,Necochea,Necochea,70562,Argentina,AR,ARG,Ciudad de Buenos Aires
-38.96657632,-64.08328251,Rio Colorado,Rio Colorado,11499,Argentina,AR,ARG,La Pampa
-28.47000771,-65.78000065,Catamarca,Catamarca,162586,Argentina,AR,ARG,Catamarca
-29.40995034,-66.84996118,La Rioja,La Rioja,147130,Argentina,AR,ARG,La Rioja
-27.78333128,-64.26665633,Santiago del Estero,Santiago del Estero,317549.5,Argentina,AR,ARG,Santiago del Estero
-27.45999184,-58.99002751,Resistencia,Resistencia,368455.5,Argentina,AR,ARG,Chaco
-33.02001422,-58.52000452,Gualeguaychu,Gualeguaychu,55860.5,Argentina,AR,ARG,Entre Ríos
-50.33332436,-72.30001612,El Calafate,El Calafate,6329,Argentina,AR,ARG,Santa Cruz
-31.55002643,-68.51998845,San Juan,San Juan,433892,Argentina,AR,ARG,San Juan
-43.3000069,-65.09999048,Rawson,Rawson,25062.5,Argentina,AR,ARG,Chubut
-38.95003986,-68.05999068,Neuquen,Neuquen,213823.5,Argentina,AR,ARG,Neuquén
-36.6200012,-64.29998763,Santa Rosa,Santa Rosa,97693.5,Argentina,AR,ARG,La Pampa
-41.14995726,-71.29999964,San Carlos de Bariloche,San Carlos de Bariloche,91953,Argentina,AR,ARG,Río Negro
-24.78335936,-65.41663782,Salta,Salta,484646,Argentina,AR,ARG,Salta
-26.81600014,-65.21662419,Tucumán,San Miguel de Tucuman,678803.5,Argentina,AR,ARG,Tucumán
-26.17283527,-58.1828158,Formosa,Formosa,202272,Argentina,AR,ARG,Formosa
-31.62387205,-60.69000126,Santa Fe,Santa Fe,393504,Argentina,AR,ARG,Santa Fe
-32.95112954,-60.66630762,Rosario,Rosario,1094784.5,Argentina,AR,ARG,Santa Fe
-47.75001951,-65.89996749,Puerto Deseado,Puerto Deseado,3305,Argentina,AR,ARG,Santa Cruz
-51.63329669,-69.21658675,Rio Gallegos,Rio Gallegos,77183,Argentina,AR,ARG,Santa Cruz
-45.87003091,-67.49999903,Comodoro Rivadavia,Comodoro Rivadavia,123291,Argentina,AR,ARG,Chubut
-32.88333006,-68.81661117,Mendoza,Mendoza,827815,Argentina,AR,ARG,Mendoza
-38.74002684,-62.2650214,Bahia Blanca,Bahia Blanca,279041,Argentina,AR,ARG,Ciudad de Buenos Aires
-38.00002033,-57.57998438,Mar del Plata,Mar del Plata,554916,Argentina,AR,ARG,Ciudad de Buenos Aires
-31.39995807,-64.18229456,Córdoba,Cordoba,1374467.5,Argentina,AR,ARG,Córdoba
-27.3578321,-55.88510735,Posadas,Posadas,334589.5,Argentina,AR,ARG,Misiones
-34.60250161,-58.39753137,Buenos Aires,Buenos Aires,11862073,Argentina,AR,ARG,Ciudad de Buenos Aires
40.3016667,44.3591667,Ashtarak,Ashtarak,18779,Armenia,AM,ARM,Aragatsotn
40.8755556,45.1491667,Ijevan,Ijevan,14737,Armenia,AM,ARM,Tavush
39.9538889,44.5505556,Artashat,Artashat,20562,Armenia,AM,ARM,Ararat
40.3588889,45.1266667,Gavarr,Gavarr,21680,Armenia,AM,ARM,Gegharkunik
39.7611111,45.3333333,Yeghegnadzor,Yeghegnadzor,8200,Armenia,AM,ARM,Vayots Dzor
40.78943402,43.84749385,Gyumri,Gyumri,140277.5,Armenia,AM,ARM,Shirak
40.81276593,44.48828162,Vanadzor,Vanadzor,89295,Armenia,AM,ARM,Lori
40.18115074,44.51355139,Yerevan,Yerevan,1097742.5,Armenia,AM,ARM,Erevan
12.53038373,-70.02899195,Oranjestad,Oranjestad,50887.5,Aruba,AW,ABW,
-33.42004148,151.3000048,Central Coast,Central Coast,3026,Australia,AU,AUS,New South Wales
-26.67998777,153.0500272,Sunshine Coast,Sunshine Coast,57215.5,Australia,AU,AUS,Queensland
-30.1,145.9333333,Bourke,Bourke,2475,Australia,AU,AUS,New South Wales
-13.81617348,131.816698,Pine Creek,Pine Creek,505,Australia,AU,AUS,Northern Territory
-13.2495414,131.0999975,Adelaide River,Adelaide River,237,Australia,AU,AUS,Northern Territory
-12.53289264,131.0500264,McMinns Lagoon,McMinns Lagoon,5025,Australia,AU,AUS,Northern Territory
-17.55279295,133.4672432,Newcastle Waters,Newcastle Waters,10,Australia,AU,AUS,Northern Territory
-33.58287392,120.0333345,Ravensthorpe,Ravensthorpe,639,Australia,AU,AUS,Western Australia
-33.29958372,117.3499841,Wagin,Wagin,1037.5,Australia,AU,AUS,Western Australia
-20.7829317,117.1333048,Roebourne,Roebourne,11281.5,Australia,AU,AUS,Western Australia
-21.63657469,116.3250337,Pannawonica,Pannawonica,686,Australia,AU,AUS,Western Australia
-22.69346108,117.7930578,Tom Price,Tom Price,1822,Australia,AU,AUS,Western Australia
-27.66618081,114.1666642,Kalbarri,Kalbarri,1537,Australia,AU,AUS,Western Australia
-28.06620807,117.8166739,Mount Magnet,Mount Magnet,424,Australia,AU,AUS,Western Australia
-29.21626707,116.0000406,Morawa,Morawa,259,Australia,AU,AUS,Western Australia
-29.28282632,114.9166442,Port Denison,Port Denison,1213,Australia,AU,AUS,Western Australia
-31.48284707,118.2666723,Merredin,Merredin,2054,Australia,AU,AUS,Western Australia
-34.632784,117.6666056,Mount Barker,Mount Barker,1771.5,Australia,AU,AUS,Western Australia
-33.69955931,117.5500752,Katanning,Katanning,3140,Australia,AU,AUS,Western Australia
-32.93288776,117.1666361,Narrogin,Narrogin,3995,Australia,AU,AUS,Western Australia
-31.34957355,115.9000468,Gingin,Gingin,1446,Australia,AU,AUS,Western Australia
-33.34428384,115.6502429,Bunbury,Bunbury,26683.5,Australia,AU,AUS,Western Australia
-32.23939004,115.7702356,Kwinana,Kwinana,18817.5,Australia,AU,AUS,Western Australia
-31.216145,119.3166857,Southern Cross,Southern Cross,187,Australia,AU,AUS,Western Australia
-25.78841429,128.9973352,Kaltukatjara,Kaltukatjara,355,Australia,AU,AUS,Northern Territory
-35.3546004,149.2113468,Queanbeyan,Queanbeyan,32408,Australia,AU,AUS,Australian Capital Territory
-28.1825834,153.5466377,Tweed Heads,Tweed Heads,33065,Australia,AU,AUS,New South Wales
-32.89960814,144.3000187,Ivanhoe,Ivanhoe,265,Australia,AU,AUS,New South Wales
-31.56620115,143.3833304,Wilcannia,Wilcannia,442,Australia,AU,AUS,New South Wales
-36.89962238,149.9000386,Merimbula,Merimbula,3607.5,Australia,AU,AUS,New South Wales
-36.12959186,144.750017,Echuca,Echuca,13460,Australia,AU,AUS,New South Wales
-35.5295768,144.9500048,Deniliquin,Deniliquin,6019.5,Australia,AU,AUS,New South Wales
-34.88284625,150.6000476,Nowra,Nowra,61036.5,Australia,AU,AUS,New South Wales
-35.34953611,150.4700297,Ulladulla,Ulladulla,6811,Australia,AU,AUS,New South Wales
-35.68961871,150.2073067,Batemans Bay,Batemans Bay,5604,Australia,AU,AUS,New South Wales
-36.23955931,149.1200345,Cooma,Cooma,5661.5,Australia,AU,AUS,New South Wales
-35.30959023,148.2200378,Tumut,Tumut,4873,Australia,AU,AUS,New South Wales
-34.54493406,146.3973067,Leeton,Leeton,6277,Australia,AU,AUS,New South Wales
-34.30959959,148.2900077,Young,Young,6422,Australia,AU,AUS,New South Wales
-33.82962889,148.6800097,Cowra,Cowra,5729.5,Australia,AU,AUS,New South Wales
-33.38960407,148.0199983,Forbes,Forbes,4076.5,Australia,AU,AUS,New South Wales
-34.74957273,149.7101794,Goulburn,Goulburn,16444,Australia,AU,AUS,New South Wales
-34.70957518,150.8400329,Kiama,Kiama,10379,Australia,AU,AUS,New South Wales
-33.70694904,150.320013,Katoomba,Katoomba,20334.5,Australia,AU,AUS,New South Wales
-33.59951373,150.7399873,Richmond,Richmond,9720,Australia,AU,AUS,New South Wales
-33.49610919,150.152788,Lithgow,Lithgow,10338,Australia,AU,AUS,New South Wales
-33.12956826,148.170015,Parkes,Parkes,7160,Australia,AU,AUS,New South Wales
-33.41962807,149.5700329,Bathurst,Bathurst,6111,Australia,AU,AUS,New South Wales
-32.72096271,151.555028,Maitland,Maitland,10026.5,Australia,AU,AUS,New South Wales
-32.56949909,151.1600134,Singleton,Singleton,8340.5,Australia,AU,AUS,New South Wales
-32.58960122,149.5801098,Mudgee,Mudgee,5391,Australia,AU,AUS,New South Wales
-32.26956907,150.890004,Muswellbrook,Muswellbrook,8171,Australia,AU,AUS,New South Wales
-31.89760211,152.4618461,Taree,Taree,30131.5,Australia,AU,AUS,New South Wales
-31.08736733,152.8220308,Kempsey,Kempsey,10681,Australia,AU,AUS,New South Wales
-30.9870117,150.2622904,Gunnedah,Gunnedah,6204,Australia,AU,AUS,New South Wales
-30.3070532,153.1122973,Coffs Harbour,Coffs Harbour,48961,Australia,AU,AUS,New South Wales
-30.33190957,149.7874357,Narrabri,Narrabri,6105.5,Australia,AU,AUS,New South Wales
-29.7667761,151.1125744,Inverell,Inverell,6845.5,Australia,AU,AUS,New South Wales
-29.42299136,153.353312,Yamba,Yamba,1806,Australia,AU,AUS,New South Wales
-28.86135333,153.5679801,Ballina,Ballina,13997.5,Australia,AU,AUS,New South Wales
-35.12215981,147.3399882,Wagga Wagga,Wagga Wagga,45549,Australia,AU,AUS,New South Wales
-32.07960651,150.8501098,Scone,Scone,4624,Australia,AU,AUS,New South Wales
-28.65650796,153.6128869,Byron Bay,Byron Bay,5244.5,Australia,AU,AUS,New South Wales
-34.28293455,140.6000378,Berri,Berri,4523,Australia,AU,AUS,South Australia
-32.96616738,138.8333239,Peterborough,Peterborough,1351,Australia,AU,AUS,South Australia
-33.9328784,137.6332938,Wallaroo,Wallaroo,2442,Australia,AU,AUS,South Australia
-33.8328845,138.6000048,Clare,Clare,2729,Australia,AU,AUS,South Australia
-35.69954059,139.3333451,Meningie,Meningie,850,Australia,AU,AUS,South Australia
-36.83280475,139.8500577,Kingston South East,Kingston South East,206,Australia,AU,AUS,South Australia
-36.31619546,140.7666426,Bordertown,Bordertown,1976,Australia,AU,AUS,South Australia
-37.38295205,140.8166654,Penola,Penola,1513,Australia,AU,AUS,South Australia
-30.89957518,135.2999996,Kingoonya,Kingoonya,50,Australia,AU,AUS,South Australia
-33.14961871,136.4333671,Kimba,Kimba,636,Australia,AU,AUS,South Australia
-32.81187176,134.2149296,Streaky Bay,Streaky Bay,614.5,Australia,AU,AUS,South Australia
-33.68286782,136.9166451,Cowell,Cowell,537,Australia,AU,AUS,South Australia
-34.38292845,136.0833109,Tumby Bay,Tumby Bay,1791,Australia,AU,AUS,South Australia
-30.43097329,137.1655704,Andamooka,Andamooka,528,Australia,AU,AUS,South Australia
-31.14958576,136.8000114,Woomera,Woomera,450,Australia,AU,AUS,South Australia
-33.19106321,137.9900162,Port Pirie,Port Pirie,12417,Australia,AU,AUS,South Australia
-34.60735919,138.7263537,Gawler,Gawler,15542.5,Australia,AU,AUS,South Australia
-35.12960122,139.2600162,Murray Bridge,Murray Bridge,14185.5,Australia,AU,AUS,South Australia
-35.55960081,138.6173164,Victor Harbor,Victor Harbor,7489,Australia,AU,AUS,South Australia
-37.73119953,142.0234135,Hamilton,Hamilton,6992.5,Australia,AU,AUS,Victoria
-35.06619424,142.3166772,Ouyen,Ouyen,912,Australia,AU,AUS,Victoria
-38.33953449,143.5800109,Colac,Colac,7450,Australia,AU,AUS,Victoria
-37.05961261,142.7600093,Stawell,Stawell,4596,Australia,AU,AUS,Victoria
-36.70960814,142.1900183,Horsham,Horsham,11985.5,Australia,AU,AUS,Victoria
-37.27954751,142.9099743,Ararat,Ararat,5464,Australia,AU,AUS,Victoria
-37.04958738,143.729976,Maryborough,Maryborough,5838.5,Australia,AU,AUS,Victoria
-37.82959145,147.6099975,Bairnsdale,Bairnsdale,9427,Australia,AU,AUS,Victoria
-38.10957436,147.0600052,Sale,Sale,17701.5,Australia,AU,AUS,Victoria
-38.19959471,146.5300118,Traralgon,Traralgon,16982.5,Australia,AU,AUS,Victoria
-38.60949217,145.5900175,Wonthaggi,Wonthaggi,4471.5,Australia,AU,AUS,Victoria
-38.09960081,145.2833695,Cranbourne,Cranbourne,249955,Australia,AU,AUS,Victoria
-37.55958209,143.8400468,Ballarat,Ballarat,73404,Australia,AU,AUS,Victoria
-37.68954832,144.570028,Melton,Melton,29750,Australia,AU,AUS,Victoria
-37.03423948,145.1273067,Seymour,Seymour,3693,Australia,AU,AUS,Victoria
-36.37458982,145.3913732,Shepparton,Shepparton,33430.5,Australia,AU,AUS,Victoria
-35.91963051,145.6500138,Cobram,Cobram,4659,Australia,AU,AUS,Victoria
-35.33961424,143.5400134,Swan Hill,Swan Hill,9073,Australia,AU,AUS,Victoria
-37.56960732,144.7100195,Sunbury,Sunbury,18677.5,Australia,AU,AUS,Victoria
-20.41623574,148.5834781,Proserpine,Proserpine,3976,Australia,AU,AUS,Queensland
-24.94949909,150.0833349,Theodore,Theodore,246,Australia,AU,AUS,Queensland
-25.36621784,151.1333483,Eidsvold,Eidsvold,459,Australia,AU,AUS,Queensland
-23.56617267,145.2833695,Barcaldine,Barcaldine,1068,Australia,AU,AUS,Queensland
-22.39962889,143.0332743,Winton,Winton,1157,Australia,AU,AUS,Queensland
-23.44959064,144.2500476,Longreach,Longreach,2894,Australia,AU,AUS,Queensland
-27.08296059,152.9499816,Caboolture,Caboolture,26495.5,Australia,AU,AUS,Queensland
-28.22924721,152.0203226,Warwick,Warwick,10024,Australia,AU,AUS,Queensland
-26.53896279,151.840592,Kingaroy,Kingaroy,7494.5,Australia,AU,AUS,Queensland
-27.19385822,151.2657434,Dalby,Dalby,9818.5,Australia,AU,AUS,Queensland
-27.07872313,153.1508996,Bongaree,Bongaree,10327.5,Australia,AU,AUS,Queensland
-26.18859658,152.6709289,Gympie,Gympie,11338,Australia,AU,AUS,Queensland
-18.64957355,146.1666231,Ingham,Ingham,5996.5,Australia,AU,AUS,Queensland
-25.89962197,139.3666247,Birdsville,Birdsville,283,Australia,AU,AUS,Queensland
-24.34958738,139.4666186,Bedourie,Bedourie,142,Australia,AU,AUS,Queensland
-22.89959837,139.9000288,Boulia,Boulia,402.5,Australia,AU,AUS,Queensland
-20.71626911,143.1333199,Richmond,Richmond,296,Australia,AU,AUS,Queensland
-17.71609048,139.5666125,Burketown,Burketown,186.5,Australia,AU,AUS,Queensland
-25.28870319,152.8409444,Hervey Bay,Hervey Bay,25114,Australia,AU,AUS,Queensland
-24.39356403,150.4960746,Biloela,Biloela,4366.5,Australia,AU,AUS,Queensland
-23.13291746,150.7567305,Yeppoon,Yeppoon,6450.5,Australia,AU,AUS,Queensland
-23.51222247,148.1673278,Emerald,Emerald,7489,Australia,AU,AUS,Queensland
-22.00156533,148.0380334,Moranbah,Moranbah,7357,Australia,AU,AUS,Queensland
-20.08090737,146.2587105,Charters Towers,Charters Towers,8369.5,Australia,AU,AUS,Queensland
-19.57024087,147.3994677,Ayr,Ayr,7166,Australia,AU,AUS,Queensland
-17.27027789,145.469353,Atherton,Atherton,6132.5,Australia,AU,AUS,Queensland
-16.48458812,145.4587219,Port Douglas,Port Douglas,2004.5,Australia,AU,AUS,Queensland
-40.83292234,145.1166613,Smithton,Smithton,3351,Australia,AU,AUS,Tasmania
-41.14949217,147.5166699,Scottsdale,Scottsdale,1683.5,Australia,AU,AUS,Tasmania
-41.87838825,148.2886124,Bicheno,Bicheno,177,Australia,AU,AUS,Tasmania
-42.29960285,147.3666015,Oatlands,Oatlands,1157,Australia,AU,AUS,Tasmania
-42.08292356,145.5500199,Queenstown,Queenstown,1658,Australia,AU,AUS,Tasmania
-42.99113686,147.3084139,Kingston,Kingston,12652,Australia,AU,AUS,Tasmania
-19.65002928,134.200015,Tennant Creek,Tennant Creek,3490.5,Australia,AU,AUS,Northern Territory
-25.24054075,130.9888932,Yulara,Yulara,930,Australia,AU,AUS,Northern Territory
-25.23330605,133.1999727,Erldunda,Erldunda,10,Australia,AU,AUS,Northern Territory
-32.20001259,121.7666137,Norseman,Norseman,1004,Australia,AU,AUS,Western Australia
-18.26670286,127.7667126,Halls Creek,Halls Creek,1209,Australia,AU,AUS,Western Australia
-15.76659707,128.7333203,Kununurra,Kununurra,5229.5,Australia,AU,AUS,Western Australia
-17.29999184,123.9666345,Derby,Derby,3199,Australia,AU,AUS,Western Australia
-21.65759354,115.0962959,Onslow,Onslow,573,Australia,AU,AUS,Western Australia
-21.93109987,114.1233469,Exmouth,Exmouth,1085,Australia,AU,AUS,Western Australia
-24.89983803,113.6501066,Carnarvon,Carnarvon,7392,Australia,AU,AUS,Western Australia
-23.36659829,119.7333011,Newman,Newman,2678,Australia,AU,AUS,Western Australia
-26.59999266,118.4832999,Meekatharra,Meekatharra,654,Australia,AU,AUS,Western Australia
-29.53330198,115.7499784,Three Springs,Three Springs,190,Australia,AU,AUS,Western Australia
-34.23332518,116.1500057,Manjimup,Manjimup,4016.5,Australia,AU,AUS,Western Australia
-31.65658323,116.6533858,Northam,Northam,5330,Australia,AU,AUS,Western Australia
-33.857307,121.8888973,Esperance,Esperance,7205,Australia,AU,AUS,Western Australia
-28.88150714,121.3280358,Leonara,Leonara,227,Australia,AU,AUS,Western Australia
-28.62700071,122.4040425,Laverton,Laverton,316,Australia,AU,AUS,Western Australia
-15.37395953,128.3600614,Wyndham,Wyndham,734.5,Australia,AU,AUS,Western Australia
-36.06003538,146.9200138,Albury,Albury,68534,Australia,AU,AUS,New South Wales
-32.19313963,152.5266483,Forster-Tuncurry,Forster-Tuncurry,13275.5,Australia,AU,AUS,New South Wales
-31.44501992,152.9186657,Port Macquarie,Port Macquarie,42070,Australia,AU,AUS,New South Wales
-31.10261188,150.9171342,Tamworth,Tamworth,35080,Australia,AU,AUS,New South Wales
-29.71199909,152.9376827,Grafton,Grafton,7871.5,Australia,AU,AUS,New South Wales
-29.469895,149.8300687,Moree,Moree,8062,Australia,AU,AUS,New South Wales
-28.55480874,150.325284,Goondiwindi,Goondiwindi,4251,Australia,AU,AUS,New South Wales
-28.81665322,153.2931132,Lismore,Lismore,28065.5,Australia,AU,AUS,New South Wales
-34.41538125,150.890004,Wollongong,Wollongong,201319.5,Australia,AU,AUS,New South Wales
-32.09913464,133.6622674,Ceduna,Ceduna,1252.5,Australia,AU,AUS,South Australia
-37.83134845,140.7650406,Mount Gambier,Mount Gambier,21818.5,Australia,AU,AUS,South Australia
-32.49002073,137.7700297,Port Augusta,Port Augusta,11186.5,Australia,AU,AUS,South Australia
-38.37999713,142.4700012,Warrnambool,Warrnambool,29882,Australia,AU,AUS,Victoria
-34.18500771,142.1513643,Mildura,Mildura,33324.5,Australia,AU,AUS,Victoria
-38.16749505,144.3956335,Geelong,Geelong,149336,Australia,AU,AUS,Victoria
-19.91673134,138.1166752,Camooweal,Camooweal,187,Australia,AU,AUS,Queensland
-26.61663247,144.2500476,Quilpie,Quilpie,560,Australia,AU,AUS,Queensland
-26.40000486,146.2500288,Charleville,Charleville,1900,Australia,AU,AUS,Queensland
-20.85000771,144.2000248,Hughenden,Hughenden,421,Australia,AU,AUS,Queensland
-26.80003213,153.1333296,Caloundra,Caloundra,33737,Australia,AU,AUS,Queensland
-26.55937498,148.7907006,Roma,Roma,4560.5,Australia,AU,AUS,Queensland
-27.56453327,151.9555204,Toowoomba,Toowoomba,86711,Australia,AU,AUS,Queensland
-18.30003416,143.5332955,Georgetown,Georgetown,818,Australia,AU,AUS,Queensland
-27.99995888,143.816689,Thargomindah,Thargomindah,203,Australia,AU,AUS,Queensland
-12.66663125,141.8666272,Weipa,Weipa,2830,Australia,AU,AUS,Queensland
-17.48333982,140.8334086,Karumba,Karumba,173,Australia,AU,AUS,Queensland
-20.69999103,140.4999922,Cloncurry,Cloncurry,1202,Australia,AU,AUS,Queensland
-25.54910073,152.7209,Maryborough,Maryborough,18920.5,Australia,AU,AUS,Queensland
-24.87906411,152.3508968,Bundaberg,Bundaberg,46062,Australia,AU,AUS,Queensland
-23.8533386,151.2467264,Gladstone,Gladstone,29055,Australia,AU,AUS,Queensland
-20.00132566,148.208669,Bowen,Bowen,10983,Australia,AU,AUS,Queensland
-17.53134723,146.0386722,Innisfail,Innisfail,9707,Australia,AU,AUS,Queensland
-21.14389158,149.1500069,Mackay,Mackay,66053.5,Australia,AU,AUS,Queensland
-41.06660317,145.9166642,Burnie,Burnie,18490.5,Australia,AU,AUS,Tasmania
-41.44983559,147.1301818,Launceston,Launceston,65106.5,Australia,AU,AUS,Tasmania
-14.46662474,132.266593,Katherine,Katherine,8171.5,Australia,AU,AUS,Northern Territory
-33.65640949,115.3486592,Busselton,Busselton,9595,Australia,AU,AUS,Western Australia
-32.52348259,115.7470567,Mandurah,Mandurah,52866,Australia,AU,AUS,Western Australia
-17.96177069,122.2307681,Broome,Broome,11890.5,Australia,AU,AUS,Western Australia
-30.73539915,121.4600175,Kalgoorlie,Kalgoorlie,32058,Australia,AU,AUS,Western Australia
-35.0169466,117.8916048,Albany,Albany,25179,Australia,AU,AUS,Western Australia
-20.31040241,118.6060315,Port Hedland,Port Hedland,8997,Australia,AU,AUS,Western Australia
-20.73037677,116.8700134,Karratha,Karratha,16636,Australia,AU,AUS,Western Australia
-28.76663043,114.5999711,Geraldton,Geraldton,27065,Australia,AU,AUS,Western Australia
-34.29001422,146.0400158,Griffith,Griffith,11664.5,Australia,AU,AUS,New South Wales
-33.27999835,149.0999841,Orange,Orange,36708,Australia,AU,AUS,New South Wales
-32.25995726,148.5973274,Dubbo,Dubbo,30467.5,Australia,AU,AUS,New South Wales
-30.51231199,151.667476,Armidale,Armidale,21793.5,Australia,AU,AUS,New South Wales
-31.94995034,141.4331136,Broken Hill,Broken Hill,17232.5,Australia,AU,AUS,New South Wales
-34.73324298,135.86658,Port Lincoln,Port Lincoln,12438.5,Australia,AU,AUS,South Australia
-33.02502684,137.5614119,Whyalla,Whyalla,21102,Australia,AU,AUS,South Australia
-38.33999957,141.5900032,Portland,Portland,10324.5,Australia,AU,AUS,Victoria
-36.75999266,144.2800199,Bendigo,Bendigo,68790,Australia,AU,AUS,Victoria
-36.36001707,146.3,Wangaratta,Wangaratta,11369.5,Australia,AU,AUS,Victoria
-25.43324217,142.6501969,Windorah,Windorah,158,Australia,AU,AUS,Queensland
-20.72386554,139.490028,Mount Isa,Mount Isa,27596,Australia,AU,AUS,Queensland
-23.36391111,150.5200008,Rockhampton,Rockhampton,59024.5,Australia,AU,AUS,Queensland
-16.88783986,145.7633309,Cairns,Cairns,132107,Australia,AU,AUS,Queensland
-28.08150429,153.4482458,Gold Coast,Gold Coast,429954.5,Australia,AU,AUS,Queensland
-41.19266757,146.3311017,Devonport,Devonport,17932.5,Australia,AU,AUS,Tasmania
-12.42535398,130.8500386,Darwin,Darwin,82973,Australia,AU,AUS,Northern Territory
-23.70099648,133.8800345,Alice Springs,Alice Springs,26949,Australia,AU,AUS,Northern Territory
-35.28302855,149.1290262,Canberra,Canberra,280866,Australia,AU,AUS,Australian Capital Territory
-32.84534788,151.8150122,Newcastle,Newcastle,816285.5,Australia,AU,AUS,New South Wales
-34.93498777,138.6000048,Adelaide,Adelaide,990677,Australia,AU,AUS,South Australia
-19.24995034,146.7699971,Townsville,Townsville,129212,Australia,AU,AUS,Queensland
-27.45503091,153.0350927,Brisbane,Brisbane,1393176.5,Australia,AU,AUS,Queensland
-42.85000853,147.2950297,Hobart,Hobart,64285,Australia,AU,AUS,Tasmania
-31.95501463,115.8399987,Perth,Perth,1206108,Australia,AU,AUS,Western Australia
-37.82003131,144.9750162,Melbourne,Melbourne,2131812.5,Australia,AU,AUS,Victoria
-33.92001097,151.1851798,Sydney,Sydney,4135711,Australia,AU,AUS,New South Wales
47.51669707,9.766701588,Bregenz,Bregenz,26928,Austria,AT,AUT,Vorarlberg
47.83329908,16.53329747,Eisenstadt,Eisenstadt,13165,Austria,AT,AUT,Burgenland
47.81598187,16.24995357,Wiener Neustadt,Wiener Neustadt,60621.5,Austria,AT,AUT,Niederösterreich
47.0777582,15.41000484,Graz,Graz,242780,Austria,AT,AUT,Steiermark
46.62034426,14.3100203,Klagenfurt,Klagenfurt,88588,Austria,AT,AUT,Kärnten
48.31923281,14.28878129,Linz,Linz,265161.5,Austria,AT,AUT,Oberösterreich
48.56704714,13.46660925,Passau,Passau,50000,Austria,AT,AUT,Oberösterreich
47.81047833,13.0400203,Salzburg,Salzburg,178274,Austria,AT,AUT,Salzburg
47.28040733,11.4099906,Innsbruck,Innsbruck,133840.5,Austria,AT,AUT,Tirol
48.20001528,16.36663896,Vienna,Vienna,2065500,Austria,AT,AUT,Wien
40.5655556,45.8161111,Gadabay,Gadabay,8657,Azerbaijan,AZ,AZE,Gadabay
40.6102778,46.7897222,Goranboy,Goranboy,7333,Azerbaijan,AZ,AZE,Goranboy
40.9922222,45.6288889,Tovuz,Tovuz,12626,Azerbaijan,AZ,AZE,Tovuz
40.9052778,45.5563889,Agdam,Agdam,0,Azerbaijan,AZ,AZE,Tovuz
40.9813889,47.8458333,Qabala,Qabala,11867,Azerbaijan,AZ,AZE,Qabala
41.0708333,47.4583333,Oguz,Oguz,6876,Azerbaijan,AZ,AZE,Oguz
40.68499595,46.35002844,Ganca,Ganca,301699.5,Azerbaijan,AZ,AZE,Ganca
40.61719647,47.15003129,Yevlax,Yevlax,50014,Azerbaijan,AZ,AZE,Yevlax
40.58001528,49.62998328,Sumqayt,Sumqayt,272154.5,Azerbaijan,AZ,AZE,Sumqayit
39.93230288,48.92025915,Ali Bayramli,Ali Bayramli,70452,Azerbaijan,AZ,AZE,?li Bayramli
40.65342165,47.74058956,Goycay,Goycay,35031.5,Azerbaijan,AZ,AZE,Göyçay
38.7540027,48.85106441,Lankaran,Lankaran,60180,Azerbaijan,AZ,AZE,Astara
41.19232932,47.17054683,Saki,Saki,63579.5,Azerbaijan,AZ,AZE,S?ki
39.81564333,46.75196773,Stepanakert,Stepanakert,57473,Azerbaijan,AZ,AZE,Xocali
39.20152061,46.41498572,Kapan,Kapan,37724,Azerbaijan,AZ,AZE,Z?ngilan
39.2092204,45.41220455,Naxcivan,Naxcivan,79771,Azerbaijan,AZ,AZE,Naxçivan
40.39527203,49.86221716,Baku,Baku,2007150,Azerbaijan,AZ,AZE,Baki
26.23613629,50.58305172,Manama,Manama,360697,Bahrain,BH,BHR,
24.24997845,89.92003048,Tangail,Tangail,180144,Bangladesh,BD,BGD,Dhaka
24.90355613,91.87360632,Sylhet,Sylhet,237000,Bangladesh,BD,BGD,Sylhet
24.75041302,90.3800024,Mymensingh,Mymensingh,330126,Bangladesh,BD,BGD,Dhaka
24.90042971,89.95000281,Jamalpur,Jamalpur,167900,Bangladesh,BD,BGD,Dhaka
23.62040448,90.49999508,Narayanganj,Narayanganj,223622,Bangladesh,BD,BGD,Dhaka
23.17043194,89.19997107,Jessore,Jessore,243987,Bangladesh,BD,BGD,Khulna
22.70040895,90.37498979,Barisal,Barisal,202242,Bangladesh,BD,BGD,Barisal
23.47041363,91.16998002,Comilla,Comilla,389411,Bangladesh,BD,BGD,Chittagong
24.00038129,89.24999385,Pabna,Pabna,137888,Bangladesh,BD,BGD,Rajshahi
24.58039756,88.34999711,Nawabganj,Nawabganj,142361,Bangladesh,BD,BGD,Rajshahi
25.80042645,88.99998328,Saidpur,Saidpur,232209,Bangladesh,BD,BGD,Rajshahi
25.75001609,89.28001786,Rangpur,Rangpur,285564,Bangladesh,BD,BGD,Rajshahi
22.839987,89.56000077,Khulna,Khulna,1447669.5,Bangladesh,BD,BGD,Khulna
24.37498374,88.6050203,Rajshahi,Rajshahi,755066.5,Bangladesh,BD,BGD,Rajshahi
23.72305971,90.40857947,Dhaka,Dhaka,9899167,Bangladesh,BD,BGD,Dhaka
22.32999229,91.79996741,Chittagong,Chittagong,4224611,Bangladesh,BD,BGD,Chittagong
13.10200258,-59.61652674,Bridgetown,Bridgetown,143865,Barbados,BB,BRB,Saint Michael
53.13684572,26.01344031,Baranavichy,Baranavichy,156514.5,Belarus,BY,BLR,Brest
55.48938946,28.78598425,Polatsk,Polatsk,79216,Belarus,BY,BLR,Vitsyebsk
54.31878908,26.86532629,Maladzyechna,Maladzyechna,96055,Belarus,BY,BLR,Minsk
52.12786338,26.09405554,Pinsk,Pinsk,120838.5,Belarus,BY,BLR,Brest
52.04595624,29.27215613,Mazyr,Mazyr,100936,Belarus,BY,BLR,Homyel'
53.89850466,30.32465002,Mahilyow,Mahilyow,343527,Belarus,BY,BLR,Mahilyow
53.12656211,29.19278113,Babruysk,Babruysk,212821.5,Belarus,BY,BLR,Mahilyow
54.51531455,30.42154333,Orsha,Orsha,130276.5,Belarus,BY,BLR,Vitsyebsk
53.88847943,25.28464758,Lida,Lida,99126,Belarus,BY,BLR,Hrodna
53.67787213,23.83409013,Hrodna,Hrodna,285867,Belarus,BY,BLR,Hrodna
54.22600405,28.49215206,Barysaw,Barysaw,127694.5,Belarus,BY,BLR,Minsk
52.43001548,31.00000932,Homyel,Homyel,472337.5,Belarus,BY,BLR,Homyel'
55.18871014,30.18533036,Vitsyebsk,Vitsyebsk,333318.5,Belarus,BY,BLR,Vitsyebsk
52.09998395,23.69998979,Brest,Brest,266775,Belarus,BY,BLR,Brest
53.89997744,27.56662716,Minsk,Minsk,1691069,Belarus,BY,BLR,Minsk
50.44599911,3.939003561,Mons,Mons,91277,Belgium,BE,BEL,Hainaut
50.96400317,5.483997561,Hasselt,Hasselt,69222,Belgium,BE,BEL,Limburg
49.68330313,5.816700472,Arlon,Arlon,26179,Belgium,BE,BEL,Arlon
51.02999758,3.700021931,Gent,Gent,337914.5,Belgium,BE,BEL,East Flanders
50.62999615,5.580010537,Liege,Liege,472803,Belgium,BE,BEL,Liege
51.22037355,3.230024779,Brugge,Brugge,131589,Belgium,BE,BEL,Brugge
50.47039349,4.870028034,Namur,Namur,97155.5,Belgium,BE,BEL,Namur
50.42039654,4.450001992,Charleroi,Charleroi,272749.5,Belgium,BE,BEL,Charleroi
51.22037355,4.415017048,Antwerpen,Antwerpen,689902.5,Belgium,BE,BEL,Antwerp
50.83331708,4.333316608,Brussels,Brussels,1381011,Belgium,BE,BEL,Brussels
17.15599807,-89.06100252,El Cayo,El Cayo,13451,Belize,BZ,BLZ,Cayo
18.39799811,-88.3880005,Corozal,Corozal,8724,Belize,BZ,BLZ,Corozal
16.97003522,-88.22000045,Dangriga,Dangriga,8506,Belize,BZ,BLZ,Stann Creek
17.49871096,-88.18837447,Belize City,Belize City,62244.5,Belize,BZ,BLZ,Belize
18.09043194,-88.5599797,Orange Walk,Orange Walk,18066.5,Belize,BZ,BLZ,Orange Walk
16.1003467,-88.81001612,Punta Gorda,Punta Gorda,6387,Belize,BZ,BLZ,Toledo
17.25203351,-88.767073,Belmopan,Belmopan,14300.5,Belize,BZ,BLZ,Cayo
6.615000092,1.715004457,Lokossa,Lokossa,86971,Benin,BJ,BEN,Mono
11.13036582,2.940016641,Kandi,Kandi,73483,Benin,BJ,BEN,Alibori
6.360372741,2.089991006,Ouidah,Ouidah,83503,Benin,BJ,BEN,Atlantique
7.190399596,1.98999711,Abomey,Abomey,82154,Benin,BJ,BEN,Zou
10.32041526,1.389982054,Natitingou,Natitingou,65356.5,Benin,BJ,BEN,Atakora
9.700427265,1.680041869,Djougou,Djougou,152708.5,Benin,BJ,BEN,Donga
9.340009988,2.620036172,Parakou,Parakou,176303,Benin,BJ,BEN,Borgou
6.483310973,2.616625528,Porto-Novo,Porto-Novo,267084,Benin,BJ,BEN,Ouémé
6.400008564,2.519990599,Cotonou,Cotonou,726292,Benin,BJ,BEN,Ouémé
32.29419029,-64.78393742,Hamilton,Hamilton,32910,Bermuda,BM,BMU,
27.3833011,89.51670065,Paro,Paro,15000,Bhutan,BT,BTN,Thimphu
27.63330305,89.83330266,Punakha,Punakha,5000,Bhutan,BT,BTN,Punakha
27.43329603,89.91669667,Wangdue Prodrang,Wangdue Prodrang,5000,Bhutan,BT,BTN,Wangdi Phodrang
27.47298586,89.63901404,Thimphu,Thimphu,88930.5,Bhutan,BT,BTN,Thimphu
-17.55000242,-65.83997115,Punata,Punata,20758.5,Bolivia,BO,BOL,Cochabamba
-17.58999998,-65.9299915,Cliza,Cliza,12235,Bolivia,BO,BOL,Cochabamba
-17.39998574,-66.27999597,Quillacollo,Quillacollo,227052,Bolivia,BO,BOL,Cochabamba
-16.87004393,-64.78001001,Puerto Villarroel,Puerto Villarroel,1778,Bolivia,BO,BOL,Cochabamba
-19.18003213,-64.91994979,Tarabuco,Tarabuco,2364,Bolivia,BO,BOL,Chuquisaca
-10.82999917,-65.4099974,Guayaramerin,Guayaramerin,36008,Bolivia,BO,BOL,El Beni
-13.7600012,-65.57996118,Santa Ana,Santa Ana,234478,Bolivia,BO,BOL,El Beni
-13.58001219,-63.58005742,Baures,Baures,2422,Bolivia,BO,BOL,El Beni
-17.33001585,-67.72998499,Sica Sica,Sica Sica,1006,Bolivia,BO,BOL,La Paz
-14.46001015,-67.55999536,Rurrenabaque,Rurrenabaque,11749,Bolivia,BO,BOL,La Paz
-15.79000649,-68.66005742,Sorata,Sorata,2190,Bolivia,BO,BOL,La Paz
-16.08332192,-68.66656865,Achacachi,Achacachi,8447,Bolivia,BO,BOL,La Paz
-16.65000568,-68.2999502,Viacha,Viacha,34776,Bolivia,BO,BOL,La Paz
-16.98001137,-67.22001612,Quime,Quime,3224.5,Bolivia,BO,BOL,La Paz
-18.42002684,-66.63999984,Llallagua,Llallagua,28069,Bolivia,BO,BOL,Potosí
-18.46999795,-66.57002995,Uncia,Uncia,4723,Bolivia,BO,BOL,Potosí
-20.46000568,-66.82998824,Uyuni,Uyuni,11616,Bolivia,BO,BOL,Potosí
-20.76655027,-67.7833409,Villa Martin,Villa Martin,10,Bolivia,BO,BOL,Potosí
-19.55995726,-65.45002079,Betanzos,Betanzos,4629.5,Bolivia,BO,BOL,Potosí
-17.36003986,-63.40001673,Portachuelo,Portachuelo,9982,Bolivia,BO,BOL,Santa Cruz
-18.18004148,-63.77001998,Samaipata,Samaipata,2926,Bolivia,BO,BOL,Santa Cruz
-20.45003213,-63.52998295,Cuevo,Cuevo,953,Bolivia,BO,BOL,Santa Cruz
-17.39998574,-63.72999658,San Carlos,San Carlos,5266.5,Bolivia,BO,BOL,Santa Cruz
-21.47994342,-64.77001062,San Lorenzo,San Lorenzo,3000,Bolivia,BO,BOL,Tarija
-21.53001788,-64.18999435,Entre Rios,Entre Rios,2685,Bolivia,BO,BOL,Tarija
-18.18954995,-65.18001144,Aiquile,Aiquile,5844,Bolivia,BO,BOL,Cochabamba
-19.29961139,-64.30996118,Padilla,Padilla,2276.5,Bolivia,BO,BOL,Chuquisaca
-20.63958128,-65.20998377,Camargo,Camargo,4715,Bolivia,BO,BOL,Chuquisaca
-14.30958006,-67.37000696,Reyes,Reyes,7376,Bolivia,BO,BOL,El Beni
-14.81962645,-66.84996118,San Borja,San Borja,19640,Bolivia,BO,BOL,El Beni
-13.2600834,-64.05276758,Magdalena,Magdalena,3445,Bolivia,BO,BOL,El Beni
-13.28959064,-64.70998845,San Ramon,San Ramon,5439.5,Bolivia,BO,BOL,El Beni
-12.49961302,-68.66656865,Puerto Heath,Puerto Heath,10,Bolivia,BO,BOL,La Paz
-17.5996118,-69.46659733,Charana,Charana,197,Bolivia,BO,BOL,La Paz
-15.49958494,-69.16666732,Puerto Acosta,Puerto Acosta,1123,Bolivia,BO,BOL,La Paz
-14.71958087,-68.41999455,Apolo,Apolo,4189,Bolivia,BO,BOL,La Paz
-16.18962034,-67.72001144,Coroico,Coroico,2361,Bolivia,BO,BOL,La Paz
-17.1696122,-68.44996688,Coro Coro,Coro Coro,1884,Bolivia,BO,BOL,La Paz
-19.01626951,-68.38327844,Sabaya,Sabaya,573,Bolivia,BO,BOL,Oruro
-18.89958413,-66.77999129,Challapata,Challapata,8565,Bolivia,BO,BOL,Oruro
-19.84960366,-68.25003076,Llica,Llica,553,Bolivia,BO,BOL,Potosí
-19.56956907,-65.75002832,Potosi,Potosi,160576,Bolivia,BO,BOL,Potosí
-22.07959674,-65.5999858,Villazon,Villazon,33734,Bolivia,BO,BOL,Potosí
-21.43958413,-65.72000431,Tupiza,Tupiza,25499.5,Bolivia,BO,BOL,Potosí
-17.34960122,-63.26002527,Montero,Montero,83821,Bolivia,BO,BOL,Santa Cruz
-13.68295164,-61.86662195,Piso Firme,Piso Firme,72,Bolivia,BO,BOL,Santa Cruz
-18.3295414,-59.75998051,Robore,Robore,9959,Bolivia,BO,BOL,Santa Cruz
-17.77960081,-57.77002446,Puerto Quijarro,Puerto Quijarro,10392,Bolivia,BO,BOL,Santa Cruz
-16.36960936,-60.96001062,San Ignacio,San Ignacio,24480,Bolivia,BO,BOL,Santa Cruz
-15.69957273,-63.07998458,Ascension,Ascension,12085,Bolivia,BO,BOL,Santa Cruz
-16.28961424,-62.50001998,San Javier,San Javier,4210,Bolivia,BO,BOL,Santa Cruz
-16.77950682,-60.6799502,San Rafael,San Rafael,1201,Bolivia,BO,BOL,Santa Cruz
-18.48958331,-64.10999923,Vallegrande,Vallegrande,6857.5,Bolivia,BO,BOL,Santa Cruz
-18.94955524,-57.8499679,Puerto Suarez,Puerto Suarez,17273,Bolivia,BO,BOL,Santa Cruz
-19.79958087,-63.2199502,Charagua,Charagua,3025,Bolivia,BO,BOL,Santa Cruz
-21.24956989,-63.50001062,Villamontes,Villamontes,18761,Bolivia,BO,BOL,Tarija
-22.72958291,-64.34998458,Bermejo,Bermejo,36544,Bolivia,BO,BOL,Tarija
-17.41001097,-66.16997685,Cochabamba,Cochabamba,804138,Bolivia,BO,BOL,Cochabamba
-17.97995034,-67.12999577,Oruro,Oruro,227592.5,Bolivia,BO,BOL,Oruro
-20.05000486,-63.51998356,Camiri,Camiri,19212.5,Bolivia,BO,BOL,Santa Cruz
-11.03334593,-68.73330876,Cobija,Cobija,35511,Bolivia,BO,BOL,Pando
-16.35999754,-58.42001062,San Matias,San Matias,6352,Bolivia,BO,BOL,Santa Cruz
-17.85003579,-60.77999577,San José,San Jose,9211,Bolivia,BO,BOL,Santa Cruz
-14.83337238,-64.89997685,Trinidad,Trinidad,69333.5,Bolivia,BO,BOL,El Beni
-21.51668537,-64.749986,Tarija,Tarija,155513,Bolivia,BO,BOL,Tarija
-19.04097085,-65.25951563,Sucre,Sucre,223287,Bolivia,BO,BOL,Chuquisaca
-10.98301308,-66.10000696,Riberalta,Riberalta,74014,Bolivia,BO,BOL,El Beni
-16.49797361,-68.14998519,La Paz,La Paz,1201399.5,Bolivia,BO,BOL,La Paz
-17.75391762,-63.22599634,Santa Cruz,Santa Cruz,1859530.5,Bolivia,BO,BOL,Santa Cruz
44.21997398,17.91998083,Zenica,Zenica,151388,Bosnia and Herzegovina,BA,BIH,Zenica-Doboj
43.35049217,17.82003861,Mostar,Mostar,133792.5,Bosnia and Herzegovina,BA,BIH,Herzegovina-Neretva
44.5504706,18.6800378,Tuzla,Tuzla,143410,Bosnia and Herzegovina,BA,BIH,Tuzla
44.98039268,16.70000362,Prijedor,Prijedor,70602.5,Bosnia and Herzegovina,BA,BIH,Serbian Republic
44.78040489,17.17997432,Banja Luka,Banja Luka,221422,Bosnia and Herzegovina,BA,BIH,Serbian Republic
43.8500224,18.38300167,Sarajevo,Sarajevo,662816.5,Bosnia and Herzegovina,BA,BIH,Sarajevo
-24.377004,26.15200256,Mochudi,Mochudi,39700,Botswana,BW,BWA,Kgatleng
-21.69961994,21.63996049,Ghanzi,Ghanzi,6306,Botswana,BW,BWA,Ghanzi
-24.16959837,21.83002641,Lokhwabe,Lokhwabe,1473,Botswana,BW,BWA,Kgalagadi
-23.96961058,21.87002397,Lehututu,Lehututu,1942,Botswana,BW,BWA,Kgalagadi
-26.00948606,22.40001745,Tshabong,Tshabong,9679,Botswana,BW,BWA,Kgalagadi
-20.15961058,22.45996212,Tsau,Tsau,1409,Botswana,BW,BWA,North-West
-19.66961465,22.26999955,Nokaneng,Nokaneng,1763,Botswana,BW,BWA,North-West
-18.29956907,21.8000024,Mohembo,Mohembo,757,Botswana,BW,BWA,North-West
-19.98959511,23.42000688,Maun,Maun,47059,Botswana,BW,BWA,North-West
-17.80957314,25.15003048,Kasane,Kasane,7774.5,Botswana,BW,BWA,North-West
-20.20947833,26.19001868,Nata,Nata,2492.5,Botswana,BW,BWA,Central
-21.17954832,24.88002112,Mopipi,Mopipi,3301,Botswana,BW,BWA,Central
-22.55961912,27.13001298,Palapye,Palapye,27179,Botswana,BW,BWA,Central
-25.2196118,25.68002397,Lobatse,Lobatse,50343.5,Botswana,BW,BWA,South-East
-24.96960122,25.33999304,Kanye,Kanye,45773.5,Botswana,BW,BWA,Southern
-24.3999719,25.5100085,Molepolole,Molepolole,57713,Botswana,BW,BWA,Kweneng
-21.17003986,27.50001623,Francistown,Francistown,89179.5,Botswana,BW,BWA,Central
-23.09999957,26.82000606,Mahalapye,Mahalapye,47607.5,Botswana,BW,BWA,Central
-22.39001707,26.71003861,Serowe,Serowe,47996,Botswana,BW,BWA,Central
-24.64631346,25.91194779,Gaborone,Gaborone,183827,Botswana,BW,BWA,South-East
-5.809995505,-46.14998438,Grajau,Grajau,30217,Brazil,BR,BRA,Maranhão
-5.250029685,-44.51998051,Presidente Dutra,Presidente Dutra,30330,Brazil,BR,BRA,Maranhão
-3.400013409,-44.36001611,Itapecuru Mirim,Itapecuru Mirim,22347,Brazil,BR,BRA,Maranhão
-2.549987774,-44.06998214,Sao Jose de Ribamar,Sao Jose de Ribamar,41521,Brazil,BR,BRA,Maranhão
-3.659997539,-45.39003076,Santa Ines,Santa Ines,58511.5,Brazil,BR,BRA,Maranhão
-2.940041485,-44.26002222,Rosario,Rosario,6798,Brazil,BR,BRA,Maranhão
-5.114999167,-42.84496647,Timon,Timon,203157,Brazil,BR,BRA,Maranhão
-1.190019105,-47.17999903,Capanema,Capanema,45831,Brazil,BR,BRA,Pará
-1.949972718,-50.81998356,Portel,Portel,10855,Brazil,BR,BRA,Pará
-5.120011781,-49.30002466,Itupiranga,Itupiranga,21301,Brazil,BR,BRA,Pará
-11.64002724,-61.20999536,Pimenta Bueno,Pimenta Bueno,25762,Brazil,BR,BRA,Rondônia
-22.53000853,-55.7299681,Ponta Pora,Ponta Pora,75047,Brazil,BR,BRA,Mato Grosso do Sul
-21.610013,-55.18002751,Maracaju,Maracaju,18156,Brazil,BR,BRA,Mato Grosso do Sul
-21.47994342,-56.15001998,Jardim,Jardim,21252.5,Brazil,BR,BRA,Mato Grosso do Sul
-20.79001137,-51.72000615,Tres Lagoas,Tres Lagoas,64217.5,Brazil,BR,BRA,Mato Grosso do Sul
-18.78000486,-42.95002466,Guanhaes,Guanhaes,16761.5,Brazil,BR,BRA,Minas Gerais
-21.53001788,-42.64004358,Leopoldina,Leopoldina,37412,Brazil,BR,BRA,Minas Gerais
-19.98003497,-43.8500214,Nova Lima,Nova Lima,60413.5,Brazil,BR,BRA,Minas Gerais
-22.22000161,-45.94002303,Pouso Alegre,Pouso Alegre,102517.5,Brazil,BR,BRA,Minas Gerais
-20.06003009,-44.57002914,Itauna,Itauna,70233,Brazil,BR,BRA,Minas Gerais
-19.79002073,-42.13999658,Caratinga,Caratinga,47517.5,Brazil,BR,BRA,Minas Gerais
-18.23998615,-43.60998438,Diamantina,Diamantina,25184.5,Brazil,BR,BRA,Minas Gerais
-17.83995888,-40.35002832,Nanuque,Nanuque,27210.5,Brazil,BR,BRA,Minas Gerais
-21.22001097,-43.77000045,Barbacena,Barbacena,101628.5,Brazil,BR,BRA,Minas Gerais
-21.78002846,-46.56998458,Pocos de Caldas,Pocos de Caldas,125498.5,Brazil,BR,BRA,Minas Gerais
-21.29003253,-46.7099502,Guaxupe,Guaxupe,43379.5,Brazil,BR,BRA,Minas Gerais
-21.1300423,-44.24999699,Sao Joao del Rei,Sao Joao del Rei,68731.5,Brazil,BR,BRA,Minas Gerais
-21.1300423,-42.38998132,Muriae,Muriae,76728.5,Brazil,BR,BRA,Minas Gerais
-20.71001626,-46.60998214,Passos,Passos,85136.5,Brazil,BR,BRA,Minas Gerais
-20.6700187,-43.78999923,Conselheiro Lafaiete,Conselheiro Lafaiete,102926,Brazil,BR,BRA,Minas Gerais
-20.46000568,-45.43002832,Formiga,Formiga,46076.5,Brazil,BR,BRA,Minas Gerais
-20.03000608,-48.94002079,Frutal,Frutal,26797,Brazil,BR,BRA,Minas Gerais
-19.72997272,-50.2000214,Iturama,Iturama,21048.5,Brazil,BR,BRA,Minas Gerais
-18.97001911,-49.45998906,Ituiutaba,Ituiutaba,63978,Brazil,BR,BRA,Minas Gerais
-18.64001341,-48.19998845,Araguari,Araguari,79910.5,Brazil,BR,BRA,Minas Gerais
-16.17003497,-40.70000696,Almenara,Almenara,22173.5,Brazil,BR,BRA,Minas Gerais
-15.65001504,-56.14002059,Varzea Grande,Varzea Grande,242088,Brazil,BR,BRA,Mato Grosso
-16.0500423,-57.51001449,Cáceres,Caceres,85274,Brazil,BR,BRA,Mato Grosso
-30.88004148,-55.53000615,Santana do Livramento,Santana do Livramento,87312,Brazil,BR,BRA,Rio Grande do Sul
-29.91999673,-51.17998743,Canoas,Canoas,466661,Brazil,BR,BRA,Rio Grande do Sul
-30.38002033,-56.45994938,Quarai,Quarai,18462,Brazil,BR,BRA,Rio Grande do Sul
-33.52003538,-53.36998295,Santa Vitoria do Palmar,Santa Vitoria do Palmar,21826,Brazil,BR,BRA,Rio Grande do Sul
-31.36998574,-51.98001611,Sao Lourenco do Sul,Sao Lourenco do Sul,21673,Brazil,BR,BRA,Rio Grande do Sul
-29.36003091,-50.81001001,Canela,Canela,47167,Brazil,BR,BRA,Rio Grande do Sul
-30.32002399,-54.32002832,Sao Gabriel,Sao Gabriel,41849.5,Brazil,BR,BRA,Rio Grande do Sul
-30.25000242,-54.92001754,Rosario do Sul,Rosario do Sul,28596.5,Brazil,BR,BRA,Rio Grande do Sul
-30.02996417,-52.90998519,Cachoeira do Sul,Cachoeira do Sul,61871,Brazil,BR,BRA,Rio Grande do Sul
-29.87999917,-50.26999129,Osorio,Osorio,30882,Brazil,BR,BRA,Rio Grande do Sul
-29.71003538,-52.44003972,Santa Cruz do Sul,Santa Cruz do Sul,109869,Brazil,BR,BRA,Rio Grande do Sul
-28.41001137,-54.95998926,Sao Luiz Gonzaga,Sao Luiz Gonzaga,27798.5,Brazil,BR,BRA,Rio Grande do Sul
-28.30004393,-54.28003076,Santo Angelo,Santo Angelo,65013,Brazil,BR,BRA,Rio Grande do Sul
-28.2900187,-52.80004358,Carazinho,Carazinho,49145,Brazil,BR,BRA,Rio Grande do Sul
-27.63000731,-52.26999841,Erechim,Erechim,85365.5,Brazil,BR,BRA,Rio Grande do Sul
-24.08996499,-54.2699797,Guaira,Guaira,28897.5,Brazil,BR,BRA,Paraná
-26.47999998,-51.99998906,Palmas,Palmas,29794.5,Brazil,BR,BRA,Paraná
-23.41000649,-51.43004968,Arapongas,Arapongas,91203.5,Brazil,BR,BRA,Paraná
-25.52787556,-48.53445345,Paranagua,Paranagua,135071,Brazil,BR,BRA,Paraná
-25.57002968,-49.18000615,Sao Jose dos Pinhais,Sao Jose dos Pinhais,472180,Brazil,BR,BRA,Paraná
-25.38001544,-51.48002079,Guarapuava,Guarapuava,123381.5,Brazil,BR,BRA,Paraná
-26.10002317,-49.79002059,Rio Negro,Rio Negro,44301.5,Brazil,BR,BRA,Paraná
-23.54999795,-51.4700214,Apucarana,Apucarana,102577,Brazil,BR,BRA,Paraná
-25.76004393,-49.72999841,Lapa,Lapa,19934.5,Brazil,BR,BRA,Paraná
-25.47003579,-50.65996749,Irati,Irati,41602,Brazil,BR,BRA,Paraná
-24.79002562,-50.00998132,Castro,Castro,38417.5,Brazil,BR,BRA,Paraná
-24.32995034,-50.61999577,Telemaco Borba,Telemaco Borba,53793.5,Brazil,BR,BRA,Paraná
-23.15994424,-49.97998316,Jacarezinho,Jacarezinho,33551,Brazil,BR,BRA,Paraná
-27.23003172,-52.03001306,Concordia,Concordia,46124.5,Brazil,BR,BRA,Santa Catarina
-26.9200248,-49.0899858,Blumenau,Blumenau,286326,Brazil,BR,BRA,Santa Catarina
-27.12998615,-48.9300214,Brusque,Brusque,81163.5,Brazil,BR,BRA,Santa Catarina
-28.94000486,-49.49998661,Ararangua,Ararangua,42198.5,Brazil,BR,BRA,Santa Catarina
-26.47999998,-49.09998519,Jaragua do Sul,Jaragua do Sul,128803.5,Brazil,BR,BRA,Santa Catarina
-28.48003294,-49.02001591,Tubarao,Tubarao,79760,Brazil,BR,BRA,Santa Catarina
-28.48003294,-48.77997888,Laguna,Laguna,32532,Brazil,BR,BRA,Santa Catarina
-27.17003538,-51.4999679,Joacaba,Joacaba,31196,Brazil,BR,BRA,Santa Catarina
-26.77000812,-51.02002303,Cacador,Cacador,57155.5,Brazil,BR,BRA,Santa Catarina
-26.17996662,-50.4000092,Canoinhas,Canoinhas,40180,Brazil,BR,BRA,Santa Catarina
-2.89999225,-40.85002364,Camocim,Camocim,27794.5,Brazil,BR,BRA,Ceará
-4.940022767,-37.97999211,Russas,Russas,33613.5,Brazil,BR,BRA,Ceará
-3.690021547,-40.35002832,Sobral,Sobral,148439.5,Brazil,BR,BRA,Ceará
-6.359987774,-39.29998906,Iguatu,Iguatu,56638,Brazil,BR,BRA,Ceará
-4.969995098,-39.02000615,Quixada,Quixada,30723.5,Brazil,BR,BRA,Ceará
-4.35003294,-39.30998845,Caninde,Caninde,32085,Brazil,BR,BRA,Ceará
-4.820030091,-42.18001998,Campo Maior,Campo Maior,24089.5,Brazil,BR,BRA,Piauí
-4.250039043,-42.29998682,Barras,Barras,11951.5,Brazil,BR,BRA,Piauí
-9.48000405,-35.83996769,Rio Largo,Rio Largo,110966,Brazil,BR,BRA,Alagoas
-9.416597067,-36.61663863,Palmeira dos Indios,Palmeira dos Indios,41095,Brazil,BR,BRA,Alagoas
-16.28000242,-39.0299797,Santa Cruz Cabralia,Santa Cruz Cabralia,9980.5,Brazil,BR,BRA,Bahia
-9.330659161,-38.26565943,Paulo Afonso,Paulo Afonso,85350,Brazil,BR,BRA,Bahia
-14.20999957,-41.67002527,Brumado,Brumado,29300,Brazil,BR,BRA,Bahia
-13.5299894,-39.96999984,Jaguaquara,Jaguaquara,30554.5,Brazil,BR,BRA,Bahia
-15.24998777,-40.24998275,Itapetinga,Itapetinga,43224,Brazil,BR,BRA,Bahia
-14.30001992,-39.33001306,Ubaitaba,Ubaitaba,27411.5,Brazil,BR,BRA,Bahia
-20.85000771,-41.12998071,Cachoeiro de Itapemirim,Cachoeiro de Itapemirim,174808.5,Brazil,BR,BRA,Espírito Santo
-22.56003253,-44.1699502,Barra Mansa,Barra Mansa,166719,Brazil,BR,BRA,Rio de Janeiro
-22.74002155,-43.46996708,Nova Iguacu,Nova Iguacu,844583,Brazil,BR,BRA,Rio de Janeiro
-22.76999388,-43.30997685,Duque de Caxias,Duque de Caxias,842890,Brazil,BR,BRA,Rio de Janeiro
-22.90001178,-43.09998967,Niteroi,Niteroi,993920,Brazil,BR,BRA,Rio de Janeiro
-22.88998655,-42.03997685,Cabo Frio,Cabo Frio,184980,Brazil,BR,BRA,Rio de Janeiro
-22.37999184,-41.78999211,Macae,Macae,133083,Brazil,BR,BRA,Rio de Janeiro
-21.41002521,-42.19996708,Miracema,Miracema,22564.5,Brazil,BR,BRA,Rio de Janeiro
-5.650005271,-37.80000309,Apodi,Apodi,8586,Brazil,BR,BRA,Rio Grande do Norte
-6.219996319,-36.02998194,Santa Cruz,Santa Cruz,22003.5,Brazil,BR,BRA,Rio Grande do Norte
-17.73004311,-49.10998458,Morrinhos,Morrinhos,27841,Brazil,BR,BRA,Goiás
-15.30331785,-49.60519983,Ceres,Ceres,18658.5,Brazil,BR,BRA,Goiás
-18.18004148,-47.9500037,Catalao,Catalao,53646.5,Brazil,BR,BRA,Goiás
-16.76999835,-47.61002446,Cristalina,Cristalina,25627.5,Brazil,BR,BRA,Goiás
-16.65000568,-49.49998661,Trindade,Trindade,93113,Brazil,BR,BRA,Goiás
-16.45001788,-51.12999048,Ipora,Ipora,23354,Brazil,BR,BRA,Goiás
-16.35999754,-49.49998661,Inhumas,Inhumas,36122,Brazil,BR,BRA,Goiás
-16.01996662,-49.80996769,Itaberai,Itaberai,18710.5,Brazil,BR,BRA,Goiás
-23.65283405,-46.52781661,Santo Andre,Santo Andre,662373,Brazil,BR,BRA,São Paulo
-22.91995888,-45.47002588,Pindamonhangaba,Pindamonhangaba,123985,Brazil,BR,BRA,São Paulo
-22.40996417,-47.56002751,Rio Claro,Rio Claro,177710,Brazil,BR,BRA,São Paulo
-22.97003335,-49.86998987,Ourinhos,Ourinhos,96994,Brazil,BR,BRA,São Paulo
-24.17998533,-46.80002222,Itanhaem,Itanhaem,82722,Brazil,BR,BRA,São Paulo
-21.25003497,-48.32998051,Jaboticabal,Jaboticabal,60780.5,Brazil,BR,BRA,São Paulo
-22.95003457,-46.5499858,Braganca Paulista,Braganca Paulista,126386,Brazil,BR,BRA,São Paulo
-23.19999347,-46.8799915,Jundiai,Jundiai,413568.5,Brazil,BR,BRA,São Paulo
-23.19999347,-45.87994918,Sao Jose dos Campos,Sao Jose dos Campos,695322.5,Brazil,BR,BRA,São Paulo
-22.81996499,-45.18999129,Guaratingueta,Guaratingueta,154730,Brazil,BR,BRA,São Paulo
-21.99004148,-47.42998377,Pirassununga,Pirassununga,51698,Brazil,BR,BRA,São Paulo
-22.74994342,-47.32998987,Americana,Americana,337747,Brazil,BR,BRA,São Paulo
-22.70999754,-47.63999679,Piracicaba,Piracicaba,329530,Brazil,BR,BRA,São Paulo
-21.98001626,-46.78999699,Sao Joao da Boa Vista,Sao Joao da Boa Vista,68666,Brazil,BR,BRA,São Paulo
-22.02001382,-47.88998153,Sao Carlos,Sao Carlos,175219,Brazil,BR,BRA,São Paulo
-21.92999347,-50.5199502,Tupa,Tupa,51798.5,Brazil,BR,BRA,São Paulo
-21.41002521,-50.08000289,Penapolis,Penapolis,44795,Brazil,BR,BRA,São Paulo
-22.12000771,-51.39000045,Presidente Prudente,Presidente Prudente,199722,Brazil,BR,BRA,São Paulo
-24.49004393,-47.83998458,Registro,Registro,49485,Brazil,BR,BRA,São Paulo
-23.35001015,-47.8600092,Tatui,Tatui,81936,Brazil,BR,BRA,São Paulo
-23.1100248,-48.9300214,Avare,Avare,70709,Brazil,BR,BRA,São Paulo
-22.22000161,-49.65997685,Garca,Garca,38460,Brazil,BR,BRA,São Paulo
-21.14001585,-48.97996668,Catanduva,Catanduva,105238,Brazil,BR,BRA,São Paulo
-20.89000527,-47.58999984,Batatais,Batatais,44061,Brazil,BR,BRA,São Paulo
-20.55002602,-48.58001693,Barretos,Barretos,97562,Brazil,BR,BRA,São Paulo
-22.21002806,-49.95001083,Marilia,Marilia,191083.5,Brazil,BR,BRA,São Paulo
-23.26004148,-47.30001754,Itu,Itu,228878,Brazil,BR,BRA,São Paulo
-23.58999551,-48.03999821,Itapetininga,Itapetininga,120889,Brazil,BR,BRA,São Paulo
-8.110010153,-35.02004358,Jaboatao,Jaboatao,681214,Brazil,BR,BRA,Pernambuco
-7.999991029,-34.8499506,Olinda,Olinda,659554,Brazil,BR,BRA,Pernambuco
-8.289999167,-35.02999129,Cabo de Santo Agostinho,Cabo de Santo Agostinho,144662,Brazil,BR,BRA,Pernambuco
-7.840000795,-35.26000309,Carpina,Carpina,118134,Brazil,BR,BRA,Pernambuco
-8.420017071,-37.06999597,Arcoverde,Arcoverde,53066,Brazil,BR,BRA,Pernambuco
-3.289580873,-60.6199797,Manacapuru,Manacapuru,55780.5,Brazil,BR,BRA,Amazonas
-3.389626446,-57.72002751,Maues,Maues,27518,Brazil,BR,BRA,Amazonas
-4.569606101,-44.67002303,Pedreiras,Pedreiras,13638,Brazil,BR,BRA,Maranhão
-4.479585756,-43.8799679,Codo,Codo,83288,Brazil,BR,BRA,Maranhão
-4.12958128,-44.15000309,Coroata,Coroata,34129,Brazil,BR,BRA,Maranhão
-3.739527569,-43.35999964,Chapadinha,Chapadinha,29807.5,Brazil,BR,BRA,Maranhão
-2.519602032,-45.0899974,Pinheiro,Pinheiro,24912,Brazil,BR,BRA,Maranhão
-5.509600404,-45.25996118,Barra do Corda,Barra do Corda,48901,Brazil,BR,BRA,Maranhão
-3.209585756,-45.00000289,Viana,Viana,15808.5,Brazil,BR,BRA,Maranhão
-6.039542217,-44.2399976,Colinas,Colinas,13562.5,Brazil,BR,BRA,Maranhão
-1.196478659,-46.14001083,Viseu,Viseu,9992.5,Brazil,BR,BRA,Pará
-1.74962319,-47.09000452,Capitao Poco,Capitao Poco,32704,Brazil,BR,BRA,Pará
-1.28959959,-47.93003076,Castanhal,Castanhal,125314.5,Brazil,BR,BRA,Pará
-0.609486065,-47.33998926,Salinopolis,Salinopolis,32384.5,Brazil,BR,BRA,Pará
-1.939585756,-54.78999964,Alenquer,Alenquer,26290,Brazil,BR,BRA,Pará
-1.759596742,-55.86998539,Oriximina,Oriximina,35300,Brazil,BR,BRA,Pará
-7.100614401,-49.94804712,Xinguara,Xinguara,4047,Brazil,BR,BRA,Pará
-4.599578431,-49.38996749,Jacundá,Jacunda,51375,Brazil,BR,BRA,Pará
-3.82959959,-54.02999435,Uruara,Uruara,10,Brazil,BR,BRA,Pará
-3.199612204,-52.21000208,Altamira,Altamira,56769,Brazil,BR,BRA,Pará
-2.959575176,-47.49000594,Paragominas,Paragominas,38095.5,Brazil,BR,BRA,Pará
-2.239619121,-49.509986,Cameta,Cameta,22705,Brazil,BR,BRA,Pará
-11.73020262,-61.78063237,Rolim de Moura,Rolim de Moura,24516,Brazil,BR,BRA,Rondônia
-9.939614239,-63.07998458,Ariquemes,Ariquemes,58096,Brazil,BR,BRA,Rondônia
-9.69539142,-65.35971623,Abuna,Abuna,1929,Brazil,BR,BRA,Rondônia
-6.319576804,-47.41998438,Tocantinopolis,Tocantinopolis,8750,Brazil,BR,BRA,Tocantins
-11.71960895,-49.05998763,Gurupi,Gurupi,45595.5,Brazil,BR,BRA,Tocantins
-20.46961749,-55.79001611,Aquidauana,Aquidauana,38053,Brazil,BR,BRA,Mato Grosso do Sul
-19.6795882,-51.20001205,Paranaiba,Paranaiba,25278.5,Brazil,BR,BRA,Mato Grosso do Sul
-19.44962807,-44.24999699,Sete Lagoas,Sete Lagoas,195032,Brazil,BR,BRA,Minas Gerais
-20.14953367,-44.89998316,Divinopolis,Divinopolis,181457,Brazil,BR,BRA,Minas Gerais
-19.4796004,-42.51999923,Ipatinga,Ipatinga,318320,Brazil,BR,BRA,Minas Gerais
-19.5795943,-46.95001306,Araxa,Araxa,70159.5,Brazil,BR,BRA,Minas Gerais
-21.24956989,-45.0099506,Lavras,Lavras,70436,Brazil,BR,BRA,Minas Gerais
-21.11960366,-42.95002466,Uba,Uba,81698.5,Brazil,BR,BRA,Minas Gerais
-20.88959186,-45.2799858,Campo Belo,Campo Belo,42042.5,Brazil,BR,BRA,Minas Gerais
-20.40962116,-42.8999502,Ponte Nova,Ponte Nova,40377,Brazil,BR,BRA,Minas Gerais
-18.75959267,-44.429986,Curvelo,Curvelo,45937,Brazil,BR,BRA,Minas Gerais
-17.19958453,-46.86999211,Paracatu,Paracatu,51673.5,Brazil,BR,BRA,Minas Gerais
-17.10961587,-43.81004968,Bocaiuva,Bocaiuva,22528.5,Brazil,BR,BRA,Minas Gerais
-16.85960529,-42.06994918,Aracuai,Aracuai,15301.5,Brazil,BR,BRA,Minas Gerais
-15.79961831,-43.30997685,Janauba,Janauba,38641,Brazil,BR,BRA,Minas Gerais
-11.3995768,-59.50002222,Juina,Juina,980,Brazil,BR,BRA,Mato Grosso
-15.87961342,-52.25999903,Barra do Garcas,Barra do Garcas,41214.5,Brazil,BR,BRA,Mato Grosso
-15.21960203,-59.3499797,Pontes e Lacerda,Pontes e Lacerda,22694.5,Brazil,BR,BRA,Mato Grosso
-15.06958535,-57.19000818,Barra do Bugres,Barra do Bugres,22386,Brazil,BR,BRA,Mato Grosso
-16.4694999,-54.63998295,Rondonopolis,Rondonopolis,146794,Brazil,BR,BRA,Mato Grosso
-29.76961831,-57.08998845,Uruguaiana,Uruguaiana,97736.5,Brazil,BR,BRA,Rio Grande do Sul
-28.65960854,-56.00997685,Sao Borja,Sao Borja,48450.5,Brazil,BR,BRA,Rio Grande do Sul
-29.70962197,-51.13998987,Novo Hamburgo,Novo Hamburgo,557017,Brazil,BR,BRA,Rio Grande do Sul
-32.04947915,-52.12000757,Rio Grande,Rio Grande,143150,Brazil,BR,BRA,Rio Grande do Sul
-30.83963051,-51.81000065,Camaqua,Camaqua,45112.5,Brazil,BR,BRA,Rio Grande do Sul
-29.1694999,-51.51996668,Bento Goncalves,Bento Goncalves,92561.5,Brazil,BR,BRA,Rio Grande do Sul
-28.49961831,-50.94000208,Vacaria,Vacaria,47275.5,Brazil,BR,BRA,Rio Grande do Sul
-28.38954751,-53.91994938,Ijui,Ijui,59047,Brazil,BR,BRA,Rio Grande do Sul
-27.86952757,-54.4599681,Santa Rosa,Santa Rosa,59119,Brazil,BR,BRA,Rio Grande do Sul
-23.4095414,-51.92996749,Maringa,Maringa,320029.5,Brazil,BR,BRA,Paraná
-24.95957599,-53.46002914,Cascavel,Cascavel,229300,Brazil,BR,BRA,Paraná
-24.04960569,-52.41998926,Campo Murao,Campo Murao,74173,Brazil,BR,BRA,Paraná
-25.52346922,-54.52998967,Foz do Iguacu,Foz do Iguacu,366989,Brazil,BR,BRA,Paraná
-26.23960122,-48.59998987,Sao Francisco do Sul,Sao Francisco do Sul,24354.5,Brazil,BR,BRA,Santa Catarina
-26.23960122,-51.07996769,Porto Uniao,Porto Uniao,50242.5,Brazil,BR,BRA,Santa Catarina
-26.89961261,-48.68001083,Itajai,Itajai,241421,Brazil,BR,BRA,Santa Catarina
-28.22960895,-48.66001205,Imbituba,Imbituba,28380,Brazil,BR,BRA,Santa Catarina
-27.80958291,-50.30998885,Lajes,Lajes,139972,Brazil,BR,BRA,Santa Catarina
-3.119513734,-40.83999841,Granja,Granja,17233,Brazil,BR,BRA,Ceará
-7.229598776,-39.42000757,Crato,Crato,164149.5,Brazil,BR,BRA,Ceará
-3.499542217,-39.58002364,Itapipoca,Itapipoca,31041,Brazil,BR,BRA,Ceará
-3.399548321,-39.04003076,Paracuru,Paracuru,19860,Brazil,BR,BRA,Ceará
-2.889605287,-40.11999068,Acarau,Acarau,21024.5,Brazil,BR,BRA,Ceará
-5.999492982,-40.31003076,Taua,Taua,29188,Brazil,BR,BRA,Ceará
-5.165590394,-40.66600387,Crateus,Crateus,40338,Brazil,BR,BRA,Ceará
-4.329569073,-38.87998885,Baturite,Baturite,17797.5,Brazil,BR,BRA,Ceará
-4.319595521,-40.72005742,Ipu,Ipu,14479.5,Brazil,BR,BRA,Ceará
-6.769575176,-43.0299681,Floriano,Floriano,35923,Brazil,BR,BRA,Piauí
-4.269572735,-41.78999211,Piripiri,Piripiri,32639,Brazil,BR,BRA,Piauí
-10.26961994,-36.58002588,Penedo,Penedo,37515.5,Brazil,BR,BRA,Alagoas
-14.78960244,-39.28001611,Itabuna,Itabuna,213799,Brazil,BR,BRA,Bahia
-17.0395943,-39.52994918,Itamaraju,Itamaraju,35055,Brazil,BR,BRA,Bahia
-14.22958494,-42.78998275,Guanambi,Guanambi,45730,Brazil,BR,BRA,Bahia
-16.42960569,-39.08002832,Porto Seguro,Porto Seguro,72031,Brazil,BR,BRA,Bahia
-13.3596122,-39.08002832,Valenca,Valenca,56584.5,Brazil,BR,BRA,Bahia
-11.64958738,-39.01000676,Serrinha,Serrinha,52953.5,Brazil,BR,BRA,Bahia
-10.96962889,-38.78999435,Tucano,Tucano,16199,Brazil,BR,BRA,Bahia
-10.44960895,-40.19001225,Senhor do Bonfim,Senhor do Bonfim,43577,Brazil,BR,BRA,Bahia
-9.599583314,-42.10999841,Remanso,Remanso,37945,Brazil,BR,BRA,Bahia
-15.23960081,-40.62998539,Itambe,Itambe,15450.5,Brazil,BR,BRA,Bahia
-13.2495414,-43.44002059,Bom Jesus da Lapa,Bom Jesus da Lapa,40691,Brazil,BR,BRA,Bahia
-12.5196118,-40.2999797,Itaberaba,Itaberaba,31722,Brazil,BR,BRA,Bahia
-18.72962034,-39.85998071,Sao Mateus,Sao Mateus,63375.5,Brazil,BR,BRA,Espírito Santo
-7.019585756,-37.29000838,Patos,Patos,85720.5,Brazil,BR,BRA,Paraíba
-22.51956989,-44.09496769,Volta Redonda,Volta Redonda,352971,Brazil,BR,BRA,Rio de Janeiro
-22.50949298,-43.19998356,Petropolis,Petropolis,279381,Brazil,BR,BRA,Rio de Janeiro
-6.469593487,-35.43999211,Nova Cruz,Nova Cruz,22563.5,Brazil,BR,BRA,Rio Grande do Norte
-6.459619935,-37.10001998,Caico,Caico,42378,Brazil,BR,BRA,Rio Grande do Norte
-5.57962197,-36.91005742,Acu,Acu,33303,Brazil,BR,BRA,Rio Grande do Norte
-11.26961058,-37.45002446,Estancia,Estancia,50690,Brazil,BR,BRA,Sergipe
1.816231505,-61.12767481,Caracarai,Caracarai,11368,Brazil,BR,BRA,Roraima
-0.039598369,-51.17998743,Porto Santana,Porto Santana,68849,Brazil,BR,BRA,Amapá
-17.81959837,-50.92997685,Rio Verde,Rio Verde,48318,Brazil,BR,BRA,Goiás
-17.29952675,-48.27998356,Pires do Rio,Pires do Rio,21688,Brazil,BR,BRA,Goiás
-16.31958657,-48.9599679,Anapolis,Anapolis,278595.5,Brazil,BR,BRA,Goiás
-15.30962238,-49.1300092,Goianesia,Goianesia,39217.5,Brazil,BR,BRA,Goiás
-14.46962197,-48.47002364,Niquelandia,Niquelandia,19785,Brazil,BR,BRA,Goiás
-18.39961465,-49.21000431,Itumbiara,Itumbiara,65343.5,Brazil,BR,BRA,Goiás
-17.87959471,-51.75000431,Jatai,Jatai,57135,Brazil,BR,BRA,Goiás
-17.56953611,-52.55998071,Mineiros,Mineiros,28247,Brazil,BR,BRA,Goiás
-15.53947915,-47.33998926,Formosa,Formosa,62585.5,Brazil,BR,BRA,Goiás
-20.79962319,-49.38996749,Sao Jose do Rio Preto,Sao Jose do Rio Preto,358243.5,Brazil,BR,BRA,São Paulo
-22.54954222,-47.40001144,Limeira,Limeira,241071,Brazil,BR,BRA,São Paulo
-23.01953937,-45.55999455,Taubate,Taubate,327600.5,Brazil,BR,BRA,São Paulo
-22.28960976,-48.57001754,Jau,Jau,102565.5,Brazil,BR,BRA,São Paulo
-22.65961302,-50.41998214,Assis,Assis,79133,Brazil,BR,BRA,São Paulo
-23.97958413,-48.88002446,Itapeva,Itapeva,55324,Brazil,BR,BRA,São Paulo
-22.87959959,-48.44999903,Botucatu,Botucatu,94938.5,Brazil,BR,BRA,São Paulo
-21.45958291,-49.2200037,Novo Horizonte,Novo Horizonte,29554,Brazil,BR,BRA,São Paulo
-20.90959064,-51.37994938,Andradina,Andradina,45715,Brazil,BR,BRA,São Paulo
-20.2696297,-50.26004358,Fernandopolis,Fernandopolis,55587,Brazil,BR,BRA,São Paulo
-8.829604473,-35.20000676,Barreiros,Barreiros,35472.5,Brazil,BR,BRA,Pernambuco
-8.059625632,-39.13002527,Salgueiro,Salgueiro,31565,Brazil,BR,BRA,Pernambuco
-7.559604473,-34.99999312,Goiana,Goiana,57764.5,Brazil,BR,BRA,Pernambuco
-7.499608135,-35.32002527,Timbauba,Timbauba,51327.5,Brazil,BR,BRA,Pernambuco
-4.229988588,-44.79998926,Bacabal,Bacabal,57296.5,Brazil,BR,BRA,Maranhão
-1.05002765,-46.76999821,Braganca,Braganca,56864.5,Brazil,BR,BRA,Pará
-1.910026836,-55.52000676,Obidos,Obidos,26278.5,Brazil,BR,BRA,Pará
-10.80002684,-65.34994938,Guajara-Miram,Guajara-Miram,51852.5,Brazil,BR,BRA,Rondônia
-10.70003294,-48.41994918,Porto Nacional,Porto Nacional,9129,Brazil,BR,BRA,Tocantins
-22.23002684,-54.80999841,Dourados,Dourados,144743.5,Brazil,BR,BRA,Mato Grosso do Sul
-18.87002521,-41.97000696,Governador Valadares,Governador Valadares,201317,Brazil,BR,BRA,Minas Gerais
-17.33001585,-44.92998132,Pirapora,Pirapora,55910,Brazil,BR,BRA,Minas Gerais
-21.77000324,-43.3749858,Juiz de Fora,Juiz de Fora,464764.5,Brazil,BR,BRA,Minas Gerais
-29.68331867,-53.80000838,Santa Maria,Santa Maria,239211.5,Brazil,BR,BRA,Rio Grande do Sul
-28.25002114,-52.41998926,Passo Fundo,Passo Fundo,164047,Brazil,BR,BRA,Rio Grande do Sul
-27.10001382,-52.64002751,Xapeco,Xapeco,154794,Brazil,BR,BRA,Santa Catarina
-26.31995807,-48.83994938,Joinville,Joinville,710737.5,Brazil,BR,BRA,Santa Catarina
-7.210013409,-39.32001367,Juazeiro do Norte,Juazeiro do Norte,222861,Brazil,BR,BRA,Ceará
-17.88000812,-39.37001062,Nova Vicosa,Nova Vicosa,30250,Brazil,BR,BRA,Bahia
-12.13999673,-38.42999048,Alagoinhas,Alagoinhas,123379,Brazil,BR,BRA,Bahia
-9.420007712,-40.49996749,Juazeiro,Juazeiro,95132,Brazil,BR,BRA,Bahia
-20.32399331,-40.36599634,Vitória,Vitoria,1008328,Brazil,BR,BRA,Espírito Santo
-7.10113513,-34.87607117,Joao Pessoa,Joao Pessoa,803441.5,Brazil,BR,BRA,Paraíba
-7.230012188,-35.88001693,Campina Grande,Campina Grande,383098.5,Brazil,BR,BRA,Paraíba
-22.25999917,-42.54004968,Nova Friburgo,Nova Friburgo,162676,Brazil,BR,BRA,Rio de Janeiro
-21.20998574,-50.45000615,Aracatuba,Aracatuba,166305,Brazil,BR,BRA,São Paulo
-9.070003236,-68.66997929,Sena Madureira,Sena Madureira,23354,Brazil,BR,BRA,Acre
-2.513814271,-66.09160954,Fonte Boa,Fonte Boa,13974.5,Brazil,BR,BRA,Amazonas
-6.66002114,-69.87380762,Eirunepe,Eirunepe,19462.5,Brazil,BR,BRA,Amazonas
-5.812165915,-61.29748356,Manicore,Manicore,17802,Brazil,BR,BRA,Amazonas
-0.97499347,-62.92389592,Barcelos,Barcelos,9968.5,Brazil,BR,BRA,Amazonas
-2.872707093,-67.80189274,Tonantins,Tonantins,2722,Brazil,BR,BRA,Amazonas
-3.36001585,-64.69998906,Tefe,Tefe,48189.5,Brazil,BR,BRA,Amazonas
-4.079971905,-63.12998153,Coari,Coari,51897.5,Brazil,BR,BRA,Amazonas
-0.133236065,-67.08330611,Sao Cabriel da Cachoeira,Sao Cabriel da Cachoeira,15231,Brazil,BR,BRA,Amazonas
-2.620784486,-60.94378422,Novo Airao,Novo Airao,9049,Brazil,BR,BRA,Amazonas
-3.140029278,-58.43998356,Itacoatiara,Itacoatiara,51509,Brazil,BR,BRA,Amazonas
-2.610035788,-56.74000981,Parintins,Parintins,64428,Brazil,BR,BRA,Amazonas
-6.983825664,-60.26994938,Natal,Natal,980588,Brazil,BR,BRA,Amazonas
-7.46389972,-63.03996118,Crato,Crato,164149.5,Brazil,BR,BRA,Amazonas
-5.520039043,-47.49000594,Imperatriz,Imperatriz,203339.5,Brazil,BR,BRA,Maranhão
-7.520020326,-46.04999048,Balsas,Balsas,39761.5,Brazil,BR,BRA,Maranhão
-1.680015036,-50.4900037,Breves,Breves,46818.5,Brazil,BR,BRA,Pará
-6.266608461,-57.65000594,Jacareacanga,Jacareacanga,31661,Brazil,BR,BRA,Pará
-3.679996319,-49.71999903,Tucurui,Tucurui,38472,Brazil,BR,BRA,Pará
-4.258617331,-55.92502079,Itaituba,Itaituba,78532,Brazil,BR,BRA,Pará
-8.250001608,-49.29002527,Conceicao do Araguaia,Conceicao do Araguaia,27115,Brazil,BR,BRA,Pará
-1.724530694,-48.88488014,Abaetetuba,Abaetetuba,78735,Brazil,BR,BRA,Pará
-12.41667234,-64.41664718,Principe da Beira,Principe da Beira,956,Brazil,BR,BRA,Rondônia
-7.190014629,-48.21001367,Araguaina,Araguaina,50444,Brazil,BR,BRA,Tocantins
-10.23773558,-48.2877867,Palmas,Palmas,215793.5,Brazil,BR,BRA,Tocantins
-17.87003457,-41.50000981,Teofilo Otoni,Teofilo Otoni,86865,Brazil,BR,BRA,Minas Gerais
-19.7799955,-47.9500037,Uberaba,Uberaba,234807,Brazil,BR,BRA,Minas Gerais
-15.47999957,-44.36998967,Januaria,Januaria,25753,Brazil,BR,BRA,Minas Gerais
-15.00002887,-59.95002059,Mato Grosso,Mato Grosso,1612,Brazil,BR,BRA,Mato Grosso
-9.169997133,-60.64000431,Aripuana,Aripuana,26983,Brazil,BR,BRA,Mato Grosso
-11.84998859,-55.45998458,Sinop,Sinop,8961,Brazil,BR,BRA,Mato Grosso
-32.5600423,-53.36998295,Jaguarao,Jaguarao,26020,Brazil,BR,BRA,Rio Grande do Sul
-31.32001463,-54.10001591,Bage,Bage,102519,Brazil,BR,BRA,Rio Grande do Sul
-23.30003904,-51.17998743,Londrina,Londrina,496035,Brazil,BR,BRA,Paraná
-28.68002073,-49.38996749,Criciuma,Criciuma,183085.5,Brazil,BR,BRA,Santa Catarina
-4.559994284,-37.77003076,Aracati,Aracati,28126.5,Brazil,BR,BRA,Ceará
-6.400037009,-38.84999068,Ico,Ico,15820,Brazil,BR,BRA,Ceará
-2.910017478,-41.76996749,Parnaiba,Parnaiba,125699,Brazil,BR,BRA,Piauí
-7.079995505,-41.43998763,Picos,Picos,47694.5,Brazil,BR,BRA,Piauí
-9.750013409,-36.66999455,Arapiraca,Arapiraca,177115,Brazil,BR,BRA,Alagoas
-13.85002155,-40.07999312,Jequie,Jequie,131524.5,Brazil,BR,BRA,Bahia
-14.7800423,-39.05000431,Ilheus,Ilheus,193060.5,Brazil,BR,BRA,Bahia
-15.64004148,-38.96000981,Canavieiras,Canavieiras,26375,Brazil,BR,BRA,Bahia
-13.38999795,-44.21002527,Santa Maria da Vitoria,Santa Maria da Vitoria,13176,Brazil,BR,BRA,Bahia
-11.29999632,-41.87001306,Irece,Irece,48079.5,Brazil,BR,BRA,Bahia
-10.82002562,-42.73001225,Xique-Xique,Xique-Xique,18633,Brazil,BR,BRA,Bahia
-19.38999347,-40.05002079,Linhares,Linhares,86413,Brazil,BR,BRA,Espírito Santo
-21.74995278,-41.32002079,Campos,Campos,378943,Brazil,BR,BRA,Rio de Janeiro
-5.190033347,-37.34000533,Mossoro,Mossoro,202294,Brazil,BR,BRA,Rio Grande do Norte
-10.90002073,-37.11996708,Aracaju,Aracaju,587765.5,Brazil,BR,BRA,Sergipe
-0.850039857,-52.48001144,Laranjal do Jari,Laranjal do Jari,43344,Brazil,BR,BRA,Amapá
2.049989847,-50.80001062,Amapa,Amapa,1947,Brazil,BR,BRA,Amapá
3.21666282,-51.21665186,Vila Velha,Vila Velha,742413.5,Brazil,BR,BRA,Amapá
-23.95372393,-46.33294266,Santos,Santos,1060201.5,Brazil,BR,BRA,São Paulo
-22.33002073,-49.08001225,Bauru,Bauru,307929.5,Brazil,BR,BRA,São Paulo
-24.72000405,-47.56994938,Iguape,Iguape,23602.5,Brazil,BR,BRA,São Paulo
-20.53002724,-47.39001205,Franca,Franca,281149.5,Brazil,BR,BRA,São Paulo
-8.890014222,-36.50003076,Garanhuns,Garanhuns,107115,Brazil,BR,BRA,Pernambuco
-8.280025616,-35.98001083,Caruaru,Caruaru,238732.5,Brazil,BR,BRA,Pernambuco
-9.966589336,-67.80000655,Rio Branco,Rio Branco,257642,Brazil,BR,BRA,Acre
-2.515984681,-44.26599085,São Luís,Sao Luis,524692.5,Brazil,BR,BRA,Maranhão
-8.750022767,-63.90001205,Porto Velho,Porto Velho,289534.5,Brazil,BR,BRA,Rondônia
-12.47000242,-49.08200179,Alvorada,Alvorada,9273,Brazil,BR,BRA,Tocantins
-19.01601113,-57.65000594,Corumba,Corumba,70035.5,Brazil,BR,BRA,Mato Grosso do Sul
-19.91502602,-43.91500452,Belo Horizonte,Belo Horizonte,3974112,Brazil,BR,BRA,Minas Gerais
-16.72002724,-43.86002079,Montes Claros,Montes Claros,300022,Brazil,BR,BRA,Minas Gerais
-18.89999754,-48.27998356,Uberlandia,Uberlandia,484862,Brazil,BR,BRA,Minas Gerais
-10.81728676,-55.45057947,Colider,Colider,27139,Brazil,BR,BRA,Mato Grosso
-9.900030091,-55.90998295,Alta Floresta,Alta Floresta,40466,Brazil,BR,BRA,Mato Grosso
-15.56960651,-56.08498519,Cuiaba,Cuiaba,603143.5,Brazil,BR,BRA,Mato Grosso
-31.75001422,-52.33002059,Pelotas,Pelotas,299270,Brazil,BR,BRA,Rio Grande do Sul
-29.17999022,-51.17003972,Caxias do Sul,Caxias do Sul,377580.5,Brazil,BR,BRA,Rio Grande do Sul
-25.09000731,-50.16004968,Ponta Grossa,Ponta Grossa,271321.5,Brazil,BR,BRA,Paraná
-5.095000388,-42.7800092,Teresina,Teresina,746860.5,Brazil,BR,BRA,Piauí
-9.619995505,-35.72997441,Maceio,Maceio,1000215.5,Brazil,BR,BRA,Alagoas
-14.85001219,-40.83999841,Vitoria da Conquista,Vitoria da Conquista,272320.5,Brazil,BR,BRA,Bahia
-12.13999673,-45.00000289,Barreiras,Barreiras,86245.5,Brazil,BR,BRA,Bahia
-20.36760822,-40.31798893,Vila Velha,Vila Velha,742413.5,Brazil,BR,BRA,Espírito Santo
-5.780023174,-35.24000431,Natal,Natal,925521.5,Brazil,BR,BRA,Rio Grande do Norte
-22.90001178,-47.10002975,Campinas,Campinas,1911277,Brazil,BR,BRA,São Paulo
-23.49000161,-47.46998132,Sorocaba,Sorocaba,561071.5,Brazil,BR,BRA,São Paulo
-21.17003986,-47.82998519,Ribeirao Preto,Ribeirao Preto,520774,Brazil,BR,BRA,São Paulo
-9.380010153,-40.50996688,Petrolina,Petrolina,227817.5,Brazil,BR,BRA,Pernambuco
-7.629987774,-72.66996769,Cruzeiro do Sul,Cruzeiro do Sul,56862,Brazil,BR,BRA,Acre
-3.100031719,-60.00001754,Manaus,Manaus,1636622,Brazil,BR,BRA,Amazonas
-4.833000876,-43.35002608,Caxias,Caxias,134640,Brazil,BR,BRA,Maranhão
-2.433250713,-54.69997929,Santarem,Santarem,209737.5,Brazil,BR,BRA,Pará
-5.349971905,-49.11597905,Maraba,Maraba,166182,Brazil,BR,BRA,Pará
-12.71660236,-60.11659957,Vilhena,Vilhena,63231,Brazil,BR,BRA,Rondônia
-10.83330646,-61.96700342,Ji-Parana,Ji-Parana,65016,Brazil,BR,BRA,Rondônia
-20.45003213,-54.61662521,Campo Grande,Campo Grande,687723,Brazil,BR,BRA,Mato Grosso do Sul
-27.57998452,-48.52002059,Florianopolis,Florianopolis,568783,Brazil,BR,BRA,Santa Catarina
-12.25001585,-38.9700092,Feira de Santana,Feira de Santana,449194.5,Brazil,BR,BRA,Bahia
2.816092955,-60.66599756,Boa Vista,Boa Vista,202299.5,Brazil,BR,BRA,Roraima
0.033007018,-51.0500212,Macapá,Macapa,433781.5,Brazil,BR,BRA,Amapá
-1.450003236,-48.48002303,Belem,Belem,1787368.5,Brazil,BR,BRA,Pará
-15.78334023,-47.91605229,Brasilia,Brasilia,3139979.5,Brazil,BR,BRA,Distrito Federal
-30.05001463,-51.20001205,Porto Alegre,Porto Alegre,2644870.5,Brazil,BR,BRA,Rio Grande do Sul
-25.420013,-49.3199976,Curitiba,Curitiba,2291430,Brazil,BR,BRA,Paraná
-3.750017884,-38.57998132,Fortaleza,Fortaleza,2958717.5,Brazil,BR,BRA,Ceará
-12.9699719,-38.47998743,Salvador,Salvador,3081422.5,Brazil,BR,BRA,Bahia
-16.72002724,-49.30002466,Goiania,Goiania,1596597.5,Brazil,BR,BRA,Goiás
-8.075645326,-34.91560551,Recife,Recife,2564549,Brazil,BR,BRA,Pernambuco
-22.92502317,-43.22502079,Rio de Janeiro,Rio de Janeiro,6879087.5,Brazil,BR,BRA,Rio de Janeiro
-23.55867959,-46.62501998,Sao Paulo,Sao Paulo,14433147.5,Brazil,BR,BRA,São Paulo
4.883331115,114.9332841,Bandar Seri Begawan,Bandar Seri Begawan,218250,Brunei,BN,BRN,Brunei and Muara
43.13799911,24.71900459,Lovec,Lovec,42211,Bulgaria,BG,BGR,Lovech
43.41400203,23.23700161,Montana,Montana,47445,Bulgaria,BG,BGR,Montana
43.53399903,26.53599663,Razgrad,Razgrad,38285,Bulgaria,BG,BGR,Razgrad
42.67937034,26.33001013,Sliven,Sliven,87346.5,Bulgaria,BG,BGR,Sliven
42.15397605,24.7539823,Plovdiv,Plovdiv,319089.5,Bulgaria,BG,BGR,Plovdiv
42.60999473,23.02271846,Pernik,Pernik,80625,Bulgaria,BG,BGR,Pernik
43.20998395,23.56253048,Vratsa,Vratsa,68287,Bulgaria,BG,BGR,Vratsa
43.27000612,26.92935339,Shumen,Shumen,75487.5,Bulgaria,BG,BGR,Shumen
41.94378216,25.5632869,Khaskovo,Khaskovo,72805,Bulgaria,BG,BGR,Haskovo
42.42313275,25.6227148,Stara Zagora,Stara Zagora,128315.5,Bulgaria,BG,BGR,Stara Zagora
43.42376935,24.61337073,Pleven,Pleven,110445.5,Bulgaria,BG,BGR,Pleven
43.08624473,25.65552934,Turnovo,Turnovo,53115,Bulgaria,BG,BGR,Veliko Tarnovo
42.28427818,22.6911108,Kyustendil,Kyustendil,49676.5,Bulgaria,BG,BGR,Kyustendil
43.58505149,27.83999548,Dobrich,Dobrich,73813,Bulgaria,BG,BGR,Dobrich
43.21564252,27.89528926,Varna,Varna,245522,Bulgaria,BG,BGR,Varna
43.85369143,25.97333939,Ruse,Ruse,170254,Bulgaria,BG,BGR,Ruse
42.51460004,27.47464311,Burgas,Burgas,174254,Bulgaria,BG,BGR,Burgas
42.68334943,23.31665401,Sofia,Sofia,1029913.5,Bulgaria,BG,BGR,Grad Sofiya
12.05499605,0.360999451,Fada Ngourma,Fada Ngourma,33910,Burkina Faso,BF,BFA,Gourma
10.97399705,-4.907996452,Orodara,Orodara,18632,Burkina Faso,BF,BFA,Kénédougou
12.1833333,-4.0833333,Solenzo,Solenzo,10385,Burkina Faso,BF,BFA,Banwa
12.7289971,-3.860000519,Nouna,Nouna,29048,Burkina Faso,BF,BFA,Kossi
12.455001,-3.464000439,Dedougou,Dedougou,45341,Burkina Faso,BF,BFA,Mou Houn
14.45000398,-0.233297546,Gorom Gorom,Gorom Gorom,6691,Burkina Faso,BF,BFA,Oudalan
14.09900404,-1.627001421,Djibo,Djibo,22223,Burkina Faso,BF,BFA,Soum
13.06899899,-3.069998409,Tougan,Tougan,17590,Burkina Faso,BF,BFA,Sourou
12.06399605,-1.333997543,Kombissiri,Kombissiri,30137,Burkina Faso,BF,BFA,Bazéga
12.57699605,-1.293002442,Ziniare,Ziniare,12703,Burkina Faso,BF,BFA,Oubritenga
12.95399712,-2.262995501,Yako,Yako,22904,Burkina Faso,BF,BFA,Passoré
12.33349214,-2.466944513,Reo,Reo,37535,Burkina Faso,BF,BFA,Sanguié
11.09400299,-2.097998529,Leo,Leo,26884,Burkina Faso,BF,BFA,Sissili
11.5544444,-1.7736111,Sapouy,Sapouy,3837,Burkina Faso,BF,BFA,Ziro
12.65699714,-0.568997532,Boulsa,Boulsa,17489,Burkina Faso,BF,BFA,Namentenga
12.24299707,-0.611000429,Zorgo,Zorgo,23892,Burkina Faso,BF,BFA,Ganzourgou
12.17700004,-0.356003514,Koupela,Koupela,32052,Burkina Faso,BF,BFA,Kouritenga
11.16900002,-1.134998478,Po,Po,17924,Burkina Faso,BF,BFA,Nahouri
11.66200198,-1.064996408,Manga,Manga,15173,Burkina Faso,BF,BFA,Zoundwéogo
10.95200113,-3.248000411,Diebougou,Diebougou,12732,Burkina Faso,BF,BFA,Bougouriba
10.32499811,-3.174002407,Gaoua,Gaoua,28023,Burkina Faso,BF,BFA,Poni
12.96900003,-0.1379965,Bogande,Bogande,9854,Burkina Faso,BF,BFA,Gnagna
14.0339971,-0.027998519,Dori,Dori,37806,Burkina Faso,BF,BFA,Séno
13.4364122,0.530443,Sebba,Sebba,3273,Burkina Faso,BF,BFA,Yagha
12.07700108,1.796004571,Diapaga,Diapaga,26013,Burkina Faso,BF,BFA,Tapoa
12.25047833,-2.369995159,Koudougou,Koudougou,85339,Burkina Faso,BF,BFA,Boulkiemdé
13.5704236,-2.419992108,Ouahigouya,Ouahigouya,70300,Burkina Faso,BF,BFA,Yatenga
13.09037539,-1.090047446,Kaya,Kaya,39623,Burkina Faso,BF,BFA,Sanmatenga
11.78040367,-0.369703818,Tenkodogo,Tenkodogo,37883,Burkina Faso,BF,BFA,Boulgou
10.63044802,-4.760004315,Banfora,Banfora,45903.5,Burkina Faso,BF,BFA,Komoé
11.1799752,-4.289981325,Bobo Dioulasso,Bobo Dioulasso,346035,Burkina Faso,BF,BFA,Houet
12.37031598,-1.524723756,Ouagadougou,Ouagadougou,992228.5,Burkina Faso,BF,BFA,Kadiogo
-3.166703921,30.51669662,Cankuzo,Cankuzo,6585,Burundi,BI,BDI,Cankuzo
-3.099995968,30.16299648,Karusi,Karusi,10705,Burundi,BI,BDI,Karuzi
-3.93100195,29.99300455,Rutana,Rutana,20893,Burundi,BI,BDI,Rutana
-3.481001905,30.2439966,Ruyigi,Ruyigi,38458,Burundi,BI,BDI,Ruyigi
-3.083300984,29.36670351,Bubanza,Bubanza,12728,Burundi,BI,BDI,Bubanza
-2.899997879,29.5667016,Kayanza,Kayanza,19443,Burundi,BI,BDI,Kayanza
-4.133303903,29.79999964,Makamba,Makamba,19642,Burundi,BI,BDI,Makamba
-2.912003884,29.82500157,Ngozi,Ngozi,21506,Burundi,BI,BDI,Ngozi
-2.5847222,30.0972222,Kirundo,Kirundo,6083,Burundi,BI,BDI,Kirundo
-3.260997006,29.61199862,Muramvya,Muramvya,18041,Burundi,BI,BDI,Muramvya
-3.950729147,29.61657955,Bururi,Bururi,20066.5,Burundi,BI,BDI,Bururi
-2.852346579,30.31726029,Muyinga,Muyinga,71076,Burundi,BI,BDI,Muyinga
-3.426006654,29.84359411,Gitega,Gitega,23167,Burundi,BI,BDI,Muramvya
-3.37608722,29.36000606,Bujumbura,Bujumbura,331700,Burundi,BI,BDI,Bujumbura Mairie
11.4519961,104.5189986,Kampong Spoe,Kampong Spoe,33231,Cambodia,KH,KHM,Kâmpóng Spœ
12.71199613,104.8889977,Kampong Thum,Kampong Thum,19951,Cambodia,KH,KHM,Kâmpóng Thum
11.48399998,105.3240036,Prey Veng,Prey Veng,74000,Cambodia,KH,KHM,Prey Vêng
13.816701,104.9667037,Phnum Tbeng Meanchey,Phnum Tbeng Meanchey,24380,Cambodia,KH,KHM,Preah Vihéar
13.52300408,105.9740016,Stoeng Treng,Stoeng Treng,29665,Cambodia,KH,KHM,Stœng Trêng
12.46899612,106.0239967,Kracheh,Kracheh,19975,Cambodia,KH,KHM,Krâchéh
12.44999711,107.1999997,Senmonorom,Senmonorom,7944,Cambodia,KH,KHM,Môndól Kiri
13.50700214,106.9810026,Lumphat,Lumphat,19205,Cambodia,KH,KHM,Rôtânôkiri
11.0799991,105.8010036,Svay Rieng,Svay Rieng,23956,Cambodia,KH,KHM,Svay Rieng
13.58375612,102.9833158,Sisophon,Sisophon,36760,Cambodia,KH,KHM,Bântéay Méanchey
11.61753897,102.9849329,Krong Koh Kong,Krong Koh Kong,30285,Cambodia,KH,KHM,Kaôh Kong
12.53369102,103.9166955,Pursat,Pursat,32961,Cambodia,KH,KHM,Pouthisat
12.00044191,105.4500386,Kampong Cham,Kampong Cham,72491.5,Cambodia,KH,KHM,Kâmpóng Cham
12.25047833,104.6666239,Kompong Chhnang,Kompong Chhnang,65817,Cambodia,KH,KHM,Kâmpóng Chhnang
10.61708966,104.1833459,Kampot,Kampot,36398,Cambodia,KH,KHM,Kâmpôt
10.98375978,104.7833093,Takeo,Takeo,15264,Cambodia,KH,KHM,Takêv
13.10001304,103.2000468,Battambang,Battambang,152608.5,Cambodia,KH,KHM,Batdâmbâng
13.36663759,103.8500329,Siem Reap,Siem Reap,97199,Cambodia,KH,KHM,Siemréab
11.55003013,104.9166345,Phnom Penh,Phnom Penh,1466000,Cambodia,KH,KHM,Phnom Penh
4.155003087,9.231003513,Buea,Buea,90088,Cameroon,CM,CMR,Sud-Ouest
5.170393696,10.17998816,Bafang,Bafang,86916.5,Cameroon,CM,CMR,Ouest
5.730385355,10.89999589,Foumban,Foumban,64399,Cameroon,CM,CMR,Ouest
5.490425841,10.40994828,Bafoussam,Bafoussam,290768,Cameroon,CM,CMR,Ouest
4.640374368,9.439981647,Kumba,Kumba,131122,Cameroon,CM,CMR,Sud-Ouest
5.750358296,8.983317015,Eyumojok,Eyumojok,5798,Cameroon,CM,CMR,Sud-Ouest
4.030385761,9.190022744,Limbe,Limbe,142290,Cameroon,CM,CMR,Sud-Ouest
2.940426452,9.910030476,Kribi,Kribi,31473,Cameroon,CM,CMR,Sud
4.960406513,9.940002806,Nkongsamba,Nkongsamba,105069,Cameroon,CM,CMR,Littoral
3.800477314,10.11999182,Edea,Edea,109506.5,Cameroon,CM,CMR,Littoral
6.400421976,10.07002071,Wum,Wum,42601,Cameroon,CM,CMR,Nord-Ouest
6.220381286,10.68000932,Kumbo,Kumbo,89728,Cameroon,CM,CMR,Nord-Ouest
4.750393493,11.23000159,Bafia,Bafia,41201,Cameroon,CM,CMR,Centre
3.520391051,11.50001094,Mbalmayo,Mbalmayo,53501.5,Cameroon,CM,CMR,Centre
3.650408955,10.76661902,Eseka,Eseka,14102,Cameroon,CM,CMR,Centre
4.580429707,13.67998124,Bertoua,Bertoua,153286.5,Cameroon,CM,CMR,Est
3.983696105,13.18331905,Abong Mbang,Abong Mbang,7698,Cameroon,CM,CMR,Est
4.433694477,14.366606,Batouri,Batouri,42271,Cameroon,CM,CMR,Est
4.933689798,13.30000443,Belabo,Belabo,11455.5,Cameroon,CM,CMR,Est
6.520492166,14.28996985,Meiganga,Meiganga,54864.5,Cameroon,CM,CMR,Adamaoua
7.320365823,13.57998734,Ngaoundere,Ngaoundere,134322.5,Cameroon,CM,CMR,Adamaoua
6.46698122,12.63332678,Tibati,Tibati,22096,Cameroon,CM,CMR,Adamaoua
7.967018859,12.23329952,Kontcha,Kontcha,5846,Cameroon,CM,CMR,Adamaoua
9.930387389,13.94001705,Guider,Guider,83319,Cameroon,CM,CMR,Nord
7.850436828,13.6000378,Mbe,Mbe,3950,Cameroon,CM,CMR,Nord
4.060409769,9.709991006,Douala,Douala,1622041,Cameroon,CM,CMR,Littoral
2.900015481,11.15000647,Ebolowa,Ebolowa,83687.5,Cameroon,CM,CMR,Sud
5.959983743,10.15001583,Bamenda,Bamenda,419567,Cameroon,CM,CMR,Nord-Ouest
9.30001243,13.39002478,Garoua,Garoua,365436.5,Cameroon,CM,CMR,Nord
10.59556643,14.32469641,Maroua,Maroua,260656,Cameroon,CM,CMR,Extrême-Nord
3.866700662,11.51665076,Yaounde,Yaounde,1335793.5,Cameroon,CM,CMR,Centre
50.15002545,-96.88332178,Selkirk,Selkirk,9819.5,Canada,CA,CAN,Manitoba
52.36655682,-97.03331262,Berens River,Berens River,522.5,Canada,CA,CAN,Manitoba
55.73327639,-101.3166171,Pukatawagan,Pukatawagan,431,Canada,CA,CAN,Manitoba
50.63330345,-96.99998133,Gimli,Gimli,2316,Canada,CA,CAN,Manitoba
